place_id,name,rating,user_ratings_total,formatted_address,formatted_phone_number,website,latitude,longitude
ChIJ--5f86zFBZERB_gPUA3vsS0,MiFarma,5.0,1.0,"Av. Sta. Rosa 405, San Juan de Lurigancho 15423, Peru",,https://www.mifarma.com.pe/,-11.9671341,-76.9959851
ChIJ-0t4CpIaSpARQwRxQxZQHxg,Botica INKAFARMA,3.0,1.0,"Av. Grau NRO. 2197, Piura 20007, Peru",,http://www.inkafarma.pe/,-5.188528799999999,-80.6505122
ChIJ-2hq6Th7sJER_bWOP8g6rKY,BOTICA PEREZ,4.0,1.0,"SM-102, Bellavista 22740, Peru",963 677 710,,-7.0559954,-76.5871962
ChIJ-QD4MR8XqpERHqgaZjQEUnE,INKAFARMA,0.0,0.0,"CAL.28 DE JULIO MZA. T LOTE. 1 URB. PROG. VIV. H.U, Huarmey 02651, Peru",,http://www.inkafarma.pe/,-10.0664169,-78.1506824
ChIJ-QYQ4wWrtpERzN_ErbNZ5Ps,Farmacia Chuquichaca,0.0,0.0,"Grau 553, Chachapoyas 01001, Peru",,,-6.2295734,-77.8718628
ChIJ-QxGcD5LQpERvvAYhy_a9QE,INKAFARMA,0.0,0.0,"NRO. 100A, 15 de Agosto 100, Arequipa 04009, Peru",,http://www.inkafarma.pe/,-16.4353782,-71.527634
ChIJ-SBU3kRKQpER7yqKjKcG3GE,Clínica Arequipa,3.2,84.0,"Esquina Puente Grau con, Bolognesi S/N, Arequipa 04017, Peru",(054) 599000,https://www.clinicarequipa.com.pe/,-16.3922236,-71.5399678
ChIJ-TQ5bFZpXZEROqL_Hx5U7us,INKAFARMA,0.0,0.0,"Jr, Leoncio Prado 120, Puno 21002, Peru",,http://www.inkafarma.pe/,-15.8498666,-70.0199375
ChIJ-Tkg99jVbZERXrwBOLah7R0,Boticas KillaPharma (Minoxidil Kirland),5.0,1.0,"A Una Cuadra De La, Avenida Santiago, Cusco 08000, Peru",988 976 000,https://www.facebook.com/KillaPharma,-13.5252586,-71.98443809999999
ChIJ-UoauCTvTJARx4S282IgsCY,Inkafarma,3.6,5.0,"Av. Miguel Grau NRO. 764, Chiclayo 14008, Peru",(074) 208648,http://www.inkafarma.pe/,-6.7812395,-79.8451383
ChIJ-ZqJ_uXzZ5ERav030NXRm80,Bitel,3.4,31.0,"Jáuregui, Juliaca 21101, Peru",,http://www.bitel.com.pe/,-15.494027,-70.13366669999999
ChIJ-ZrRoej9rJERKFg1fOTt7cM,INKAFARMA,0.0,0.0,"AV. VICTOR RAUL MZA 14 LOTE 5, 13620, Peru",,http://www.inkafarma.pe/,-8.405291199999999,-78.8201246
ChIJ-womEHC9BZERC9rFTWUeD9s,INKAFARMA,0.0,0.0,"Ucayali NRO. 701, LIMA 15822, Peru",,http://www.inkafarma.pe/,-12.2148398,-76.9093149
ChIJ-xv47QtLQpERcE4UQiUMuHw,INKAFARMA,0.0,0.0,"Av. Arequipa NRO. 400, Arequipa 04001, Peru",,http://www.inkafarma.pe/,-16.388472,-71.5252026
ChIJ-yBGIRLIBZER5nczhh3Gbzo,QF Farmacia Magistral,2.0,3.0,"Av. Angamos 785, Surquillo 15047, Peru",961 324 465,https://www.farmaciasqf.com/,-12.112854,-77.02365739999999
ChIJ0-GavZ7IBZERLw15l9DYWQ8,Inkafarma,0.0,0.0,"Jr. Huánuco NRO. 1855, LIMA 15018, Peru",,http://www.inkafarma.pe/,-12.0670562,-77.0147355
ChIJ04niE3NssJERy0vCnMlQgL0,La Curacao,4.0,8.0,"Jr. La merced 486-488, Mariscal Caceres 22601, Peru",(01) 2002870,http://www.lacuracao.pe/,-7.180056299999999,-76.72608009999999
ChIJ07TvptbiEJERGcIOh5UDI8g,Inkafarma,5.0,1.0,"Av La Angostura 411, Ica 11004, Peru",,https://inkafarma.pe/,-14.0511463,-75.75555240000001
ChIJ0RcR5nWYBZERC4dKf8HiiHs,Boticas Perú,2.0,1.0,"Av. Panamericana Sur Km 43, Lima 15846, Peru",(01) 2067000,http://www.boticasperu.com.pe/,-12.327014,-76.824822
ChIJ0S4mt77RBZER1qIggCM7aaU,Farmacia Ahorrofarma,0.0,0.0,"Jr Asturias Mz R4 Lote 13 Los Olivos Municipalidad Metropolitana de Lima, Los Olivos LIMA 39, Peru",,https://farmacia-ahorrofarma.negocio.site/?utm_source=gmb&utm_medium=referral,-11.9448442,-77.074165
ChIJ0S9nulZKQpEROYiRc1xpexA,Mifarma,0.0,0.0,"Calle San José 326-324, Cercado De Arequipa 04001, Peru",(054) 202044,https://www.mifarma.com.pe/locales/,-16.3990261,-71.5318037
ChIJ0S_XjRvGBZERVFVuYvb_sT4,Boticas Perú,4.3,3.0,"Av. Riva Agüero 550, Cercado de Lima 15004, Peru",(01) 2067000,http://www.boticasperu.com.pe/,-12.054542,-77.0040497
ChIJ0W76aOrzZ5ERb-mq1viYB3Q,INKAFARMA,4.0,2.0,"JR, Benigno Ballon NRO. 1001, Puno 21101, Peru",,http://www.inkafarma.pe/,-15.4887854,-70.1255315
ChIJ0WJCKPvFBZERfxVI_ckxNQI,BOTICAS MI FARMA,4.0,1.0,"Av. José Carlos Mariátegui, Cercado de Lima 15006, Peru",,https://www.mifarma.com.pe/,-12.0310248,-76.9995388
ChIJ0WoDTdOXCZER1PdTjMF4xTc,INKAFARMA,0.0,0.0,"Av Leopoldo Krausse NRO. 772, OXAPAMPA, Peru",,http://www.inkafarma.pe/,-10.7376843,-75.2714293
ChIJ0Wvb8W_dbZER5cFYo31Bqgs,INKAFARMA,0.0,0.0,"CALLE PRINCIPAL DE LA PLAZA DE ARMAS S/N, Urubamba 08661, Peru",,http://www.inkafarma.pe/,-13.3057641,-72.1156281
ChIJ0YwLXyfvTJARmEDpo1_q3I8,Inkafarma,4.3,7.0,"Av José Leonardo Ortiz 104, Chiclayo 14009, Peru",(01) 4261899,http://www.inkafarma.pe/,-6.771323300000001,-79.8454935
ChIJ0azBam4Q6pEROzOlafyPbrA,Mifarma,0.0,0.0,"Jirón Próspero 384, Iquitos 16006, Peru",,,-3.7517806,-73.2456725
ChIJ0cGk_5PtTJARKWIr3HRv3i0,Mifarma,4.0,3.0,"Ramón Castilla, Pomalca 14013, Peru",,http://www.mifarma.com.pe/,-6.7039478,-79.9025106
ChIJ0ff_JJtpXZERPRb9Z5jHx3Y,INKAFARMA,0.0,0.0,"JR, Ilave 258, Chucuito 21001, Peru",,http://www.inkafarma.pe/,-15.8399513,-70.03000879999999
ChIJ0fso29LvTJARi8d2a67owbI,Botica Econosalud,5.0,1.0,"Av. Fernando Belaunde 415, Chiclayo 14009, Peru",,,-6.7724853,-79.87044519999999
ChIJ0wT7rzTRBZERf044Up0G-4U,INKAFARMA,4.4,5.0,"Puente Piedra 15121, Peru",,https://inkafarma.pe/,-11.8645558,-77.07441899999999
ChIJ0xC6OyK5BZERNUkCFXdn5as,Inkafarma,4.0,6.0,"Av 26 de Noviembre NRO. 100, LIMA 15817, Peru",(01) 2191400,http://www.inkafarma.pe/,-12.1775697,-76.9392984
ChIJ0xD-K5n4rZERd6ZVpmOvm7Y,MiFarma,5.0,1.0,"Jr. Grau 805, Cajabamba 06351, Peru",,http://mifarma.com.pe/,-7.623931100000001,-78.0455714
ChIJ0xrVg2uJNZARBBHKkfGLg9I,Botica Grissfarma,5.0,1.0,"Tambo Grande 20201, Peru",,,-4.929968300000001,-80.3429948
ChIJ0yF0qRjxDZERbrv9S74FVcE,INKAFARMA,0.0,0.0,"Jr. Libertad N.163, Bellavista 09405, Peru",,http://www.inkafarma.pe/,-12.9915792,-74.7238526
ChIJ0yWOIlN_rJERuITvzebCrOY,INKAFARMA,0.0,0.0,"MZA. N LOTE. 1 A.H, Santa 02816, Peru",,http://www.inkafarma.pe/,-8.9856836,-78.61274139999999
ChIJ0yfyrUvvTJAR_aI2QrUBqfk,Boticas Y Salud,5.0,1.0,"Av. José Balta 1069, Chiclayo 14001, Peru",(065) 550000,http://www.boticasysalud.com/ubica-tu-botica/,-6.769329099999999,-79.8384172
ChIJ12suseqWCZERLKbSv-C8teY,Farmacia Villa Rica,0.0,0.0,"Av Leopoldo Krausse 841, Villa Rica, Peru",968 504 841,,-10.7382816,-75.27194639999999
ChIJ14_FiBHIBZERutXlCqeRMsQ,Boticas Perú,3.2,5.0,"Av. Angamos 726, Surquillo 15047, Peru",(01) 2067000,http://www.boticasperu.com.pe,-12.1135993,-77.02385559999999
ChIJ17-wv1VPqZER3Pxo1iaHfbU,INKAFARMA,0.0,0.0,"Lote 10, ALM, Av. Arias Grazziani Mz A, Yungay 02160, Peru",,http://www.inkafarma.pe/,-9.1406744,-77.7449001
ChIJ1QRHWX0bSpARtKJm6l8mKbk,Universidad Tecnológica del Perú,5.0,4.0,"Piura 20001, Peru",,https://www.utp.edu.pe/,-5.1830715,-80.64039660000002
ChIJ1QkDQG4Q6pER0AacYvKhbLU,Inkafarma,3.8,4.0,"Morona 182, Iquitos 16006, Peru",,http://www.inkafarma.pe/,-3.7519894,-73.2452837
ChIJ1RmEg-jzZ5ERpelZKPBxzaM,Almafar - Droguería - Distribuidora,3.7,32.0,"Jr. Tumbes 384 B, Juliaca 21103, Peru",(051) 326813,http://www.almafar.com.pe/,-15.4965866,-70.1287457
ChIJ1TIAXeDVbZERYUIses2oYZs,Centro Médico CIMA,4.1,47.0,"Av. Pardo Paseo de los Héroes 978, Cusco 08002, Peru",(084) 255550,http://www.cima-clinic.com/,-13.5249043,-71.9739829
ChIJ1UmRWxIbSpARBQQa5FOYXwo,"BOTICA ""EL NIÑO""",5.0,1.0,"Av. Grau, Piura 20008, Peru",,,-5.183365600000001,-80.6665664
ChIJ1WBu30SWDpERLEyYrPdw6WA,Inkafarma,0.0,0.0,"INT. A, Av. Daniel Alcides Carrion NRO. 1123, Huancayo 12001, Peru",,http://www.inkafarma.pe/,-12.0708564,-75.21601609999999
ChIJ1WwG-lvQBZERpBuL7Vzfgu4,Inkafarma Tupac Amaru 9,4.8,4.0,"Av. Túpac Amaru NRO. 8001, LIMA 15313, Peru",,http://www.inkafarma.pe/,-11.9135287,-77.03970799999999
ChIJ1X7NGzfQBZERwWD_w9HcOUw,Mifarma,3.1,9.0,"Av. Micaela Bastidas 115, Comas 15312, Peru",(01) 6125000,http://www.mifarma.com.pe/,-11.9335899,-77.0473253
ChIJ1XK8E3DJBZERgcgA7NrHxpU,Farmacia Universal,3.8,78.0,"Av. la Marina 2543, San Miguel 15087, Peru",(01) 4171800,http://www.farmaciauniversal.com/,-12.0782786,-77.0899882
ChIJ1XiCZ37PWpERouYsN5Hyk20,Inka Farma,4.3,3.0,"Gustavo Pinto NRO. 355, Tacna 23001, Peru",,http://www.inkafarma.pe/,-18.0047494,-70.2417519
ChIJ1ZRqwD_OBZERdKhip4pQg2E,Botica Royalfarma,5.0,2.0,"Av San Marcos 172, Los Olivos 15306, Peru",(01) 4852655,,-11.9743091,-77.0778404
ChIJ1dV8qU-WDpERAh3q9vZhoXI,Oftalmo Center Bernuy,0.0,0.0,"El Rey, Int.: 8B, Piso: 1, Ca. Real 517, Huancayo 12001, Peru",(064) 214848,,-12.0689894,-75.2103588
ChIJ1eHL7T19EpERhD8qvvJ3s_Q,BOTICAS QF,4.0,1.0,"Independencia Nº 277, Ayacucho 05001, Peru",(066) 314284,https://es-la.facebook.com/farmaciasqfperu/,-13.1525204,-74.2235764
ChIJ1ejWcdPyM5ARWYE7lZz9R8E,boticas Felicidad 07,5.0,2.0,"Calle Bolivar, Tumbes 24001, Peru",,,-3.5659878,-80.4570033
ChIJ1wQhEX8NCZERWMclLcv07CM,"Botica ""San Pedro""",0.0,0.0,"Jiron Progreso 120, San Ramón 12841, Peru",,,-11.1233287,-75.3558777
ChIJ1wnBcSt9EpERbxaFipruUQ4,BOTICA DAYANA / AGENTE BCP,3.0,1.0,"Jr. Carlos F Vivanco 392, Ayacucho 05003, Peru",999 093 436,,-13.1636674,-74.22474179999999
ChIJ1xmzsZ8a6pERkap1C3BekZM,Inka Farma Yavarí,0.0,0.0,"JR. YAVARI NRO. 1302 P.J. VERSALLES ETAPA II, Iquitos 16002, Peru",,http://www.inkafarma.pe/,-3.7393207,-73.2505293
ChIJ23676tDHBZERV9UmyggpbBE,Quimder Botica Dermatológica,4.4,82.0,"San Borja Norte 559 San Borja, San Borja LIMA 41, Peru",(01) 4761663,http://www.boticaquimder.com/,-12.0939,-77.00322290000001
ChIJ23Yo4OrvTJARqZTnskwa6ck,Mi Farma,4.3,3.0,"Av Pedro Ruiz 1001, Chiclayo 14001, Peru",(074) 205419,https://www.mifarma.com.pe/,-6.767816799999999,-79.83798829999999
ChIJ24Fzom8LCZERm_iXJr5ZBOA,INKAFARMA,0.0,0.0,"JR. LIMA NRO. 675 MZA. Z LOTE 08, San Jerónimo 12855, Peru",,http://www.inkafarma.pe/,-11.0065013,-75.36496609999999
ChIJ26grmm6cRJERl1JrzC55DVg,Tiendas Efe,3.3,51.0,"Av Balta 413, Moquegua 18001, Peru",(01) 2002890,http://www.efe.com.pe/,-17.1928337,-70.93729909999999
ChIJ27WoMhIRSpARgh8MlDvgCQs,Grupo DMAT Piura - Fierro Cemento Ladrillo Eternit,4.8,5.0,"Av Guardia Civil 1001, Piura 20002, Peru",981 299 947,http://www.grupodmat.com/,-5.1934632,-80.6143843
ChIJ292bkYplEJERH3Ld9_MmoIA,Mi Farma,4.3,8.0,"Jose De San Martin 123, Pisco 11601, Peru",,https://www.mifarma.com.pe/,-13.7100075,-76.2038271
ChIJ2Q28Z9_jEJERlOL4OUuEUn0,INKAFARMA,0.0,0.0,"CAL.CASTROVIRREYNAMZA. B LOTE. 8, Ica 11002, Peru",,http://www.inkafarma.pe/,-14.0507147,-75.7314738
ChIJ2QCEUgW4BZER8YvNzW70nKs,Boticas & salud,3.8,5.0,"Av. Ayacucho, Santiago de Surco 15049, Peru",921 433 729,http://www.boticasysalud.com/,-12.1399002,-76.99943329999999
ChIJ2W6rE2G5BZEReYq-KJl_cHU,INKAFARMA,0.0,0.0,"Jr, La Merced 201, Huaura 15817, Peru",(01) 4261899,http://www.inkafarma.pe/,-12.1816522,-76.9413221
ChIJ2Y9TfH4QSpARsZG7Ge5dvBs,Mifarma,3.6,9.0,"Jr. Arequipa 796, Piura 20001, Peru",955 215 862,http://www.mifarma.com.pe/delivery,-5.1961319,-80.6276251
ChIJ2ZDCRoY9rZERDJds9nuFzw8,MiFarma,1.0,1.0,"Av. España 1400, Trujillo 13001, Peru",(044) 299900,https://www.mifarma.com.pe/,-8.1067698,-79.02311759999999
ChIJ2aN5r91LQpER_dbvgeWc_f0,INKAFARMA,0.0,0.0,"PRO, Andres Avelino Cáceres LOTE. 1, Arequipa 04014, Peru",,http://www.inkafarma.pe/,-16.3886089,-71.5659166
ChIJ2abDM3E9rZERifulUYgywfA,Clínica San Pablo Trujillo,3.7,87.0,"Av. Húsares de Junín 690 Urb. La Merced, Trujillo 13008, Peru",(044) 485244,http://www.sanpablotrujillo.com.pe/,-8.1219895,-79.0343487
ChIJ2bg0bqu5BZERjDQKxz21Qp4,INKAFARMA,0.0,0.0,"MZA. N LOTE. 11, Lima 15834, Peru",,http://www.inkafarma.pe/,-12.2142436,-76.9344174
ChIJ2cuuj2DkTJARgHeZZtw5MzM,Farmacia San Rafael,4.0,1.0,"28 de Julio 461, Monsefú 14831, Peru",,,-6.878350699999999,-79.8711048
ChIJ2f8FttfuTJAR10A9H307MYo,Mifarma,4.0,13.0,"Av. José Balta 999, Chiclayo 14001, Peru",969 321 085,http://www.mifarma.com.pe/,-6.7697083,-79.8384672
ChIJ2fQP1hWBq5ERBUBvszYKD-I,Farmacia San Pedro,0.0,0.0,"Jirón José Olaya 563, Chimbote 02803, Peru",,,-9.071168,-78.5912397
ChIJ2fih93dtsJERSlc-LKGx79w,Botica Mi Angel,0.0,0.0,"Juanjuí 22601, Peru",,,-7.1809427,-76.730313
ChIJ2y-0us8qaZERYRTT9C418fU,Botica Santa Rosita,5.0,2.0,"JR. 28 DE JULIO 508, Sicuani 08254, Peru",(084) 351704,,-14.2751897,-71.2258163
ChIJ2y8VwxNotZERjykqnOnm_eo,Inkafarma,0.0,0.0,"Jr. Sta. Rosa NRO. 300, San Ignacio 06846, Peru",,http://www.inkafarma.pe/,-5.145093699999999,-79.0014807
ChIJ2zVvOhY9rZERCLkITMeGaYg,Inkafarma,4.0,3.0,"Av. Larco 904, Distrito de Víctor Larco Herrera 13009, Peru",(044) 280396,,-8.1371217,-79.0494555
ChIJ300npjnOBZERrsCsYFdTZrQ,Farmacias Magistral Q.F.,2.7,6.0,"Av. Marañon 601, Los Olivos 15304, Peru",(01) 5232017,http://www.farmaciasqf.pe/,-11.9720494,-77.0706203
ChIJ31pYNTjTBZERHR5go2OKT9Y,INKAFARMA,0.0,0.0,"MZA. 05 LOTE. 19 A.H, Los Licenciados DE, Ventanilla 07061, Peru",,http://www.inkafarma.pe/,-11.8779262,-77.1309089
ChIJ39GbxA7VbZER5DHizcRO1z8,INKAFARMA,0.0,0.0,"JR. JAQUIJAHUANA MZA. G LOTE. 5, Anta, Cusco 08002, Peru",,http://www.inkafarma.pe/,-13.5280631,-71.96380959999999
ChIJ3Q0Z_e_uTJARnqCaIuZ6OM4,USAT,4.4,300.0,"Av San Josemaría Escriva de Balaguer 855, Chiclayo 14012, Peru",(074) 606200,http://www.usat.edu.pe/,-6.7603743,-79.86303319999999
ChIJ3Tqw8dGUTJARwkDbtGV3lrA,Ferreteria Brayan E.I.R.L,4.3,27.0,"Monseñor Francisco Gonzales Burga 368, Ferreñafe 14311, Peru",943 966 243,,-6.637633999999999,-79.7952545
ChIJ3V2LONx_bpERnwau0qw_Qu4,Autodisa kia motor,4.2,9.0,"Carr. Cusco - Paucartambo, Cusco 08004, Peru",(084) 240378,,-13.5316008,-71.9145617
ChIJ3W66wBG4BZERvOWG3Jdg7aw,Inka Farma,4.0,1.0,"Av Surco NRO. 622 URB, LIMA 15049, Peru",,http://www.inkafarma.pe/,-12.1410775,-76.9948756
ChIJ3_5eAgXPBZERiahv_mH7KdQ,BOTICA AHORROFARMA,0.0,0.0,"Auxiliar Avenida Carlos Izaguirre, Cercado de Lima 15301, Peru",,,-11.9900289,-77.06550399999999
ChIJ3b3Bl8graZERuq-K87ui7gQ,INKAFARMA,0.0,0.0,"Av. Manuel Callo Zevallos NRO. 204, Sicuani 08254, Peru",,http://www.inkafarma.pe/,-14.2704758,-71.2276358
ChIJ3b_5vMvJBZERY7RY5YyI5KE,Inkafarma,2.5,2.0,"JR. ALMTE 2091, LIMA 15073, Peru",(01) 4261899,http://www.inkafarma.pe/,-12.0862396,-77.0385936
ChIJ3cLvUvjLBZERR0IirzhDzcU,MiFarma,0.0,0.0,"Centro Comercial Minka Avenida Argentina 3093 Callao, Cajamarca 07001, Peru",(01) 2130760,https://www.mifarma.com.pe/,-12.0472071,-77.111712
ChIJ3erE55PtTJAR4J89P_KN8QE,Boticas Perú,0.0,0.0,"Atahualpa 105, Lambayeque 14013, Peru",(01) 2067000,http://www.boticasperu.com.pe/,-6.7046149,-79.9030597
ChIJ3fjORmfTDZERY_q0jJMhF4I,InKaFarma,4.0,2.0,"Av. Centenario 216, Pampas 09156, Peru",,http://www.inkafarma.pe/,-12.3988131,-74.86743799999999
ChIJ3w3NLOPIBZERgnAZMrZtsi4,Inkafarma,4.0,3.0,"Av. Húsares de Junin 152, Jesús María 15072, Peru",(01) 3142020,https://inkafarma.pe/,-12.0753561,-77.05308029999999
ChIJ3ww72CLJBZEREnW7B9nSbBY,Drogueria ABC Farma EIRL,4.7,3.0,"Urbanización, Av. Mariscal Antonio José de Sucre 296, Lima 15327, Peru",982 545 401,http://www.paginasamarillas.com.pe/empresas/drogueria-abc-farma-eirl/comas-80630621,-12.0913471,-77.0791097
ChIJ3zdCZN3GBZER8RRiNokF2ZE,Inka Farma Botica-Perfumería,3.0,2.0,"Av. Flora Tristan 354, Cercado de Lima 15026, Peru",3142020,http://inkafarma.pe/,-12.0719202,-76.9407963
ChIJ41ZnkcXFBZERcRW3_fJp5KE,Boticas Perú Calle Nueva,4.0,1.0,"19 Ate, Ate 15498, Peru",(01) 2067000,http://www.boticasperu.com.pe/,-12.0253142,-76.92005449999999
ChIJ41q6C3NssJERdA38-WyHb04,InkaFarma Botica Perfumería Juanjui Centro,4.5,4.0,"Jirón Huallaga, Juanjuí 22601, Peru",,,-7.1807827,-76.7261982
ChIJ42CWRu_zZ5ER45t7IAjZtII,Farmacias Y Perfumería San Román,0.0,0.0,"Jr. San Roman 254, Juliaca 21104, Peru",941 858 687,,-15.4947042,-70.1325153
ChIJ42wEfkTjEJERbz2waNm0lBY,INKAFARMA,0.0,0.0,"AV. MARISCAL NRO. 302, Chincha, Ica 11001, Peru",,http://www.inkafarma.pe/,-14.069443,-75.7254281
ChIJ45AbKhWnXZERP3PQWs0hXis,INKAFARMA,0.0,0.0,"Jr. Atahualpa 842, Ilave 21501, Peru",,http://www.inkafarma.pe/,-16.0838117,-69.6385627
ChIJ45eVchURSpAROq_RVebqVfc,Farmacia Solidaria - Consultorio Medico SERABI,4.5,2.0,"Av. Grau 481-401, Piura 20001, Peru",(073) 409165,,-5.1957331,-80.6293616
ChIJ46uNkToQ6pER6uQuev28fcA,INKAFARMA,4.5,4.0,"JR PROSPERO NRO 1391, Iquitos 16006, Peru",(065) 263653,http://www.inkafarma.pe/,-3.7700696,-73.2625513
ChIJ47RRy1rlrZERjLAl7WS51g8,Inkafarma,4.0,1.0,"JR. SAN MARTIN 875 MZA. 111 LOTE. 7A, Huamachuco 13301, Peru",,http://www.inkafarma.pe/,-7.8165159,-78.0459521
ChIJ47aiSpk9rZERSWKYrPGuDck,Facultad de Farmacia y Bioquímica,4.8,6.0,"Av. Jesús de Nazareth 732, Trujillo 13011, Peru",(044) 474839,http://facfar.unitru.edu.pe/,-8.1107924,-79.03784929999999
ChIJ48dZI7XXBZER-TrbxwQdULM,INKAFARMA,0.0,0.0,"LOTE. L-5, Imagina - Alto Carabayllo, Av. San Juan de Dios, Carabayllo 15121, Peru",,http://www.inkafarma.pe/,-11.8613053,-77.051949
ChIJ48hZPm89rZERTfFObLXeAP0,Inkafarma,0.0,0.0,"Prol Cesar Vallejo 1345, Trujillo 13008, Peru",(01) 3159015,https://inkafarma.pe/,-8.1310617,-79.03224139999999
ChIJ48yAOd7vTJARxvaGgOKkLOk,Inkafarma,0.0,0.0,"Av. los Incas NRO. 1197, Chiclayo 14007, Peru",,http://www.inkafarma.pe/,-6.8015602,-79.8389025
ChIJ4RAxIaS9DpERJYPieffnf0M,Universidad Tecnológica del Perú (UTP),5.0,1.0,"Av Circunvalación 449, 12007, Peru",,https://www.utp.edu.pe/,-12.0234803,-75.23382579999999
ChIJ4RB5VbjPWpERT6v3DM__m8A,INKAFARMA,0.0,0.0,"AV. CUZCO NRO. S/N, Tacna 23003, Peru",,http://www.inkafarma.pe/,-18.02048,-70.2530195
ChIJ4RD_RtxtCJERe9T5swyh1M4,INKAFARMA,0.0,0.0,"AV. CIRCUNVALACION ARENALES MZA. F, Cerro De Pasco 19001, Peru",,http://www.inkafarma.pe/,-10.6877725,-76.2551352
ChIJ4RsE1DPRBZER6eE04EvRNhw,Boticas Perú,4.3,3.0,"Av. Puente Piedra S/N Km 30,5 Dentro del Hospital de la Solidaridad Puente Piedra Municipalidad Metropolitana de Lima, Puente Piedra LIMA 22, Peru",(01) 2067000,http://www.boticasperu.com.pe/,-11.8691338,-77.0707091
ChIJ4S60UVYbCJERIXej5EGHbDk,INKAFARMA,0.0,0.0,"AV. HUALLAGA NRO. S/N, Huariaca 19120, Peru",,http://www.inkafarma.pe/,-10.4385192,-76.1910233
ChIJ4S78Bh6jNpARuAPQY8mEwwk,INKAFARMA,0.0,0.0,"AV. REPUBLICA DEL PERU MZA. 1 LOTE. C7A URB. ANDRES, Punta Sal 24560, Peru",,http://www.inkafarma.pe/,-3.9805969,-80.9756708
ChIJ4UfjoUN8SpARYzvRF2c4M8o,Inkafarma,5.0,1.0,"JR. LAMBAYEQUE NRO. 500 (SECTOR III, Chulucanas 20301, Peru",,http://www.inkafarma.pe/,-5.0959389,-80.1610161
ChIJ4UilRXQDbZERrR5fLtDbEKs,BOTICA CENTRAL ABANCAY E.I.R.L.,0.0,0.0,"Ave Diaz Barcenas 515, Abancay 03001, Peru",,,-13.6354772,-72.87969319999999
ChIJ4VPmW45bspEROE560iNi228,INKAFARMA,0.0,0.0,"Av Larry Jhonson 803, Cajamarca 06003, Peru",,http://www.inkafarma.pe/,-7.183098200000001,-78.4888157
ChIJ4WXGNoi_DpERbXLOLjY5p1o,INKAFARMA,0.0,0.0,"Jr. Miguel Grau NRO. 414, Chupaca 12501, Peru",,http://www.inkafarma.pe/,-12.0142917,-75.2857295
ChIJ4Wao5mpLQpERv-465MLo7RE,INKAFARMA,0.0,0.0,"Jesus NRO. 2601, Arequipa 04008, Peru",,http://www.inkafarma.pe/,-16.4221841,-71.4971542
ChIJ4Z55xu_Dp5ER-A7vv-TPvNQ,INKAFARMA,0.0,0.0,"URB, Via Colectora 100 102, Huánuco 10002, Peru",,http://www.inkafarma.pe/,-9.9101712,-76.2264114
ChIJ4ZT3v3g0TZARVhqdL5ORtTE,Farmacia Farma Star,5.0,1.0,"Jr. Atahualpa 8, Chepén 13871, Peru",,,-7.2296178,-79.43236329999999
ChIJ4aC7UWTOBZERx6oUTTRaTqQ,KINFARMA PERU,2.0,1.0,"Mz A Lt 11, Av. Carlos Izaguirre, San Martín de Porres 15108, Peru",(01) 6354321,,-11.990732,-77.087507
ChIJ4aTvuhvJBZERvjZz5dAZDQM,Mifarma,4.2,6.0,"C. Bernardo de O'Higgins, Pueblo Libre 15084, Peru",(01) 6125000,http://www.mifarma.com.pe/,-12.0723474,-77.0643211
ChIJ4b4dBaP7NZARRbuXnl9IaWM,INKAFARMA,0.0,0.0,"CAL.SAN MARTIN NRO. 697, Sullana 20102, Peru",,http://www.inkafarma.pe/,-4.903638,-80.68643229999999
ChIJ4cPOdD49rZERtgHF71dfefw,Farmacia + Medica,0.0,0.0,"Simon Bolivar 482, Trujillo 13009, Peru",932 462 188,,-8.1393695,-79.0473732
ChIJ4cY2wnTWbZERze_15uEtx3k,Caja Municipal Cusco,3.5,4.0,"Afligidos 118, Cusco 08002, Peru",(084) 244201,http://www.cmac-cusco.com.pe/,-13.5191113,-71.9770187
ChIJ4cwMdgartpERd9tf5M7ZufI,Mifarma,4.3,3.0,"Jr. Ortiz Arriet 534, Chachapoyas 01001, Peru",,http://www.mifarma.com.pe/,-6.2294404,-77.87291429999999
ChIJ4efGIfS7BZERn-ZsZae3J6k,Boticas Perú,2.0,1.0,"Mz B1 Lote 8 Urb. Pachacamac, Lima 15836, Peru",(01) 2067000,http://www.boticasperu.com.pe/,-12.231759,-76.922456
ChIJ4fNA1snJBZERMTyuX07sXpw,Mi Farma,0.0,0.0,"Avenida Comandante Espinar 850, Miraflores 15074, Peru",,http://www.mifarma.com.pe/,-12.1111425,-77.0366903
ChIJ4fQWwM0qaZERb47_M2CAtqk,Farmacia San Martín de Porres,5.0,1.0,"Dos de Mayo 326, Sicuani 08254, Peru",953 765 223,,-14.270369,-71.226475
ChIJ4yqSQ1dKQpERMVChhf4Oc0I,Bitel,0.0,0.0,"General Móran 107, Cercado De Arequipa 04001, Peru",930 123 123,https://sv2.bitel.com.pe/,-16.3997169,-71.53578089999999
ChIJ50hux363BZERHcZdsgm8U38,Boticas Perú,4.0,2.0,"Av. Prol. Huaylas 1201, Cercado de Lima 15064, Peru",(01) 2067000,http://www.boticasperu.com.pe/,-12.1745778,-77.0186955
ChIJ51BaxWTGBZERTRPpL5O3mfk,Inkafarma,2.8,5.0,"Av. Francisco Bolognesi NRO. 665 URB, LIMA 15008, Peru",,http://www.inkafarma.pe/,-12.0496348,-76.9722895
ChIJ51LqIkpXXZERA7tDI6jGqNE,INKAFARMA,0.0,0.0,"Av. Normal N° 501, Cabana 21700, Peru",,http://www.inkafarma.pe/,-15.6505181,-70.3223984
ChIJ51jL8VvQBZERWpCPY_zZ7vM,Boticas Perú,4.0,1.0,"Av. Túpac Amaru 7993, Comas 15313, Peru",(01) 2067000,http://www.boticasperu.com.pe/,-11.913464,-77.039827
ChIJ51kJG_voBZERYXL7u1KuoC0,INKAFARMA,4.8,4.0,"Las Palmeras 310, Chaclacayo 15472, Peru",,https://inkafarma.pe/,-11.9758729,-76.7703516
ChIJ56kNS_bPWpERQ2PkAEalYEM,Botica Abifarma,0.0,0.0,"Gustavo Pinto 1197, Tacna 23001, Peru",,,-17.9976187,-70.2448032
ChIJ58vWncTNDpERdOhAUNCqE6E,BOTICA FARMACENTRO II,3.0,1.0,"Jr. San Martin, Jauja 12601, Peru",,,-11.7737834,-75.4979524
ChIJ59CuBt_VbZEROW9RdWa4H50,BOTICA MULTISERVICIOS FARMAKEL,5.0,1.0,"Jirón 21 de Mayo, Cusco 08001, Peru",,,-13.5254473,-71.9790223
ChIJ59c0kf5aspERfzEnkmvu8YA,Farmacia Universal,3.7,6.0,"Jirón Silva Santisteban 300, Cajamarca 06002, Peru",,,-7.160207499999999,-78.5158009
ChIJ5RrFb3LIBZERlKlmvh4CZJI,Mifarma Boticas Y Perfumeria,3.0,2.0,"Calle Las Tiendas, Lima 15047, Peru",,https://www.mifarma.com.pe/locales/#,-12.1038176,-77.02112919999999
ChIJ5SD7zG09rZER3PvA1gKPRUI,Inkafarma,4.0,16.0,"Av. Los Angeles 599, Trujillo 13009, Peru",(01) 4261899,http://www.inkafarma.pe/,-8.1296768,-79.0372477
ChIJ5UFOnyNncpERcqQ2E0Vn9A4,INKAFARMA,0.0,0.0,"CAL.URUBAMBA NRO. 734, Atalaya 08750, Peru",,http://www.inkafarma.pe/,-12.6436215,-72.539604
ChIJ5W90qdHuTJAREMGdrBb_lkA,Boticas Perú,1.0,1.0,"Av. José Balta 1795, Chiclayo 14001, Peru",(01) 2067000,http://www.boticasperu.com.pe/,-6.7631081,-79.8376874
ChIJ5WKZQTTGBZERMbZ4xEou9RE,Agricare SAC,4.6,5.0,"Av.Canada 3786 San Luis, Cercado de Lima 15021, Peru",999 237 700,http://www.agricareperu.com/,-12.0798212,-76.99144849999999
ChIJ5X6JzrkrCpERdcdCrcsTT2g,INKAFARMA,0.0,0.0,"LOTE. 1, Av Marginal MZA. N, CHANCHAMAYO 12865, Peru",,http://www.inkafarma.pe/,-10.9007223,-74.90371499999999
ChIJ5YSgVe7Dp5ERYZMBK1Fg-mw,Inkafarma,1.0,1.0,"Jirón Huallayco 800, Huánuco 10001, Peru",(01) 4261899,http://www.inkafarma.pe/,-9.9302736,-76.24345579999999
ChIJ5YqQJbPIWpERAYXGYp61gh8,Botica Inkafarma,5.0,1.0,"Av. la Cultura, Tacna 23004, Peru",,https://inkafarma.pe/,-18.0461696,-70.25611959999999
ChIJ5_MKdm24BZER5nCEi4H5SU4,Inkafarma,4.0,2.0,"JR, URB. PROLOG, Calle Loma Umbrosa NRO. 706, LIMA 15039, Peru",920 558 211,http://www.inkafarma.pe/,-12.1403145,-76.9844785
ChIJ5djdTeXuTJARVQIuWfG6aSw,Hospital Regional de Lambayeque,3.9,81.0,"Chiclayo 14012, Peru",(074) 480440,http://www.regionlambayeque.gob.pe/web/?pass=MTc0MDAw,-6.7618239,-79.8630917
ChIJ5fo7X4VBppERob8YZVfubqM,Mifarma,2.5,2.0,"Raymondi 285, Tingo María 10131, Peru",,,-9.299318,-76.0034151
ChIJ5wdzl_PIBZERQHNYlCKmpuM,Farmacia PADOMI,3.0,51.0,"Av. Arenales 1302, Jesús María 15072, Peru",(01) 4707000,,-12.0778852,-77.03682069999999
ChIJ5xY81eTuTJARI_bumVzlG0I,UTP Chiclayo,4.0,83.0,"Esquina Prol. Augusto B. Leguía con Av. Herman Meiner, Hermann Guiner, Chiclayo 14011, Peru",(074) 622121,https://www.utp.edu.pe/chiclayo/,-6.763795399999999,-79.86342429999999
ChIJ601Ur2TPWpER8rCSZsNo4Do,"Financiera Crediscotia, Tacna",4.0,10.0,"Avenida San Martin, Tacna 23001, Peru",(052) 425757,http://www.crediscotia.com.pe/,-18.0109727,-70.2471855
ChIJ61eHBBsNqZER6SSlLXnAJJ4,Mundial Farma,4.0,2.0,"Av. Mariscal Toribio Luzuriaga 1224, Huaraz 02001, Peru",(043) 429631,http://mundialfarma.com.pe/,-9.534279100000001,-77.5299352
ChIJ64f5fE7DBZERUrwqZOZzgBo,Boticas Perú,4.5,4.0,"Av. José Carlos Mariátegui 500, Ate 15491, Peru",(01) 2067000,http://www.boticasperu.com.pe/,-12.026705,-76.916799
ChIJ6RAyJnKFq5ER7AZh9GvyECA,INKAFARMA,0.0,0.0,"MZ L2 LT 13, Nuevo Chimbote 02711, Peru",,http://www.inkafarma.pe/,-9.124169,-78.5270405
ChIJ6Rueif7VbZERKsLzHDruJs4,Botica juanita,2.0,2.0,"Hermanos Ayar 200, Cusco 08002, Peru",,,-13.524931,-71.9572337
ChIJ6U8lezSTDZERYygTYfDyQzc,INKAFARMA,0.0,0.0,"jr. Huancavelica, Acobamba 09380, Peru",,http://www.inkafarma.pe/,-12.860765,-74.5814773
ChIJ6UdebgM7t5ERbxDoJlgWQWU,Entel Perú,3.3,50.0,"Jr. Pedro Canga 419, Moyobamba, San Martin, Moyobamba 22001, Peru",,http://www.entel.pe/,-6.032617999999999,-76.973833
ChIJ6W64h3szTZARR9hj4nz-gsA,INKAFARMA,0.0,0.0,"Av. Panamericana N° 341, Chepén 13871, Peru",,http://www.inkafarma.pe/,-7.2100794,-79.4273183
ChIJ6Zul-0TFBZERpSRA-7y_IqE,Boticas Perú,0.0,0.0,"Av, Carr. Central Lt 2, Ate 15494, Peru",(01) 2067000,http://www.boticasperu.com.pe/,-12.0294733,-76.9241474
ChIJ6bYhStI3TZARncoqokbHtkg,"Botica ""Ladyfarma""",0.0,0.0,"CPM Pakatnamú, C. Cajamarca D-11, Guadalupe 13841, Peru",,,-7.2509424,-79.4779772
ChIJ6cKZhYUaSpAR-uJLUD62T6Y,Boticas Felicidad,4.3,10.0,"Av. Grau 471, Piura 20001, Peru",969 693 709,,-5.1958015,-80.6295222
ChIJ6cW_yZU_rZER78k2w-9qtnA,INKAFARMA,0.0,0.0,"MZA. A LOTE. 29, Trujillo 13013, Peru",,http://www.inkafarma.pe/,-8.0612789,-79.0535592
ChIJ6cf4OW7vTJARLmCVlv1M7Q4,INKAFARMA,0.0,0.0,"CAL.MARIANO MELGAR 980 LOTE. 1 (MZA. 43, Chiclayo 14011, Peru",,http://www.inkafarma.pe/,-6.764968199999999,-79.8606824
ChIJ6f2rF509rZERBTWLwP7nmpA,Sanitas Perú,0.0,0.0,"Av. España 240, Trujillo 13001, Peru",,http://www.sanitasperu.com/,-8.114251,-79.0321721
ChIJ6foh0NvNDpERu_LxTjeUJuY,"Botica ""Farma Sol""",5.0,1.0,"Avenida Ricardo Palma 355, Jauja 12601, Peru",994 857 561,,-11.7804339,-75.49627459999999
ChIJ6wph4aG5BZEROfNVohGMzts,INKAFARMA,0.0,0.0,"Jirón Santiago Antúnez de Mayolo, Lima 15039, Peru",,http://www.inkafarma.pe/,-12.134383,-76.992003
ChIJ6zNAFnkQSpARAxOfLwOBN-k,Boticas y salud,4.0,2.0,"Av Sánchez Cerro 847, Piura 20001, Peru",,http://www.boticasysalud.com/novedades/estamos-mas-cerca-de-ti-conoce-nuestro-nuevo-loc-5,-5.192000999999999,-80.6289721
ChIJ7-VoI_dbRJERxR1xE7gozOs,inka farma,3.9,7.0,"CAL. CENTRO URBANO, 2 De Mayo 332, Ilo 18601, Peru",,http://www.inkafarma.pe/,-17.6454519,-71.3458709
ChIJ73Jei9DOBZER0fHw2WvUwjk,InkaFarma,2.6,16.0,"Av. Perú 1799, Cercado de Lima 15101, Peru",(01) 4261899,http://www.inkafarma.pe/,-12.0324297,-77.0647812
ChIJ73bj82eXDpERP5sNuQTmUMQ,Inkafarma,0.0,0.0,"NRO. 2692, Mariscal Castilla 2692-2694, Huancayo 12006, Peru",,http://www.inkafarma.pe/,-12.043456,-75.2259248
ChIJ75JEuiPPBZERQ-Q-x-T4RVk,Boticas kymfarma,0.0,0.0,"Av. Universitaria 660, San Martín de Porres 15103, Peru",987 078 681,,-12.0198095,-77.07576639999999
ChIJ76nu8ZrPBZER070xwobkKjs,INKAFARMA,0.0,0.0,"Jr. Andahuaylas NRO. 1081, LIMA 15106, Peru",,http://www.inkafarma.pe/,-12.0360518,-77.0846593
ChIJ76rD1FmaQZEREUEjvxhREG8,El Pedregal,,,"El Pedregal, Majes 04112, Peru",,,-16.3596354,-72.1893722
ChIJ771qrcL7D5ERRe3_Ef34UyU,Inkafarma,3.8,5.0,"Av Ramos 400, Imperial 15701, Peru",(01) 3142020,,-13.0614309,-76.3515611
ChIJ77iONcrHBZERizfD2-9oaSI,Farmacia Universal,4.1,16.0,"Av. Los Constructores 122, La Molina 15012, Peru",,http://www.farmaciauniversal.com/,-12.0677644,-76.9577278
ChIJ789B1wVlEJERo-Yh-2JAv7Q,INKAFARMA,0.0,0.0,"AV. LAS AMERICAS NRO. SN, Pisco 11601, Peru",,http://www.inkafarma.pe/,-13.7169333,-76.20753789999999
ChIJ789zZoEaSpARMD--RREJ-rY,Inkafarma,0.0,0.0,"Av. Grau 1151, Piura 20001, Peru",(01) 4261899,http://www.inkafarma.pe/,-5.194077,-80.6365175
ChIJ7RF74k7GBZERpJ-oiiBlmJU,Boticas & Salud,4.0,4.0,"AV. LOS QUECHUAS NRO. 1141 MZ. H LOTE. 19 URB. OLIMPO I ETAPA (ESQ, Euterpe, Cercado de Lima 15022, Peru",(01) 6550000,http://www.boticasysalud.com/,-12.0747467,-76.9800295
ChIJ7WJsLOjFBZERymcUwuGpu98,Botica farmaci+,0.0,0.0,"Av. Huarochiri, Cercado de Lima 15011, Peru",,,-12.035086,-76.9551563
ChIJ7Wkl8sj7NZAR77_NVxF4UhA,Inkafarma Sullana 3 Trabajo,3.8,5.0,"Jose de Lama 49, Sullana 20101, Peru",(073) 312124,https://inkafarma.pe/,-4.893975,-80.6865062
ChIJ7XSeHDaRNpAR5Vlp9TJXlIM,MIFARMA MANCORA,4.5,4.0,"Au. Panamericana Nte. 608, Máncora 20851, Peru",,https://www.mifarma.com.pe/,-4.106859,-81.0533507
ChIJ7Y92loJFrZERJOLc3O7oQSU,INKAFARMA,0.0,0.0,"Carretera Panamericana Norte 401, Sullana 13701, Peru",,http://www.inkafarma.pe/,-7.839898,-79.15145230000002
ChIJ7ZavgIN9EpERbbvPN0b2AeE,Botica J&L Farma,4.0,1.0,"Jirón Cangallo 501, Ayacucho 05002, Peru",(066) 289620,,-13.1800879,-74.2263131
ChIJ7Ze6kOYbSpARbNE9QBM10vM,BOTICA VIDA Y FELICIDAD,0.0,0.0,"Piura 20008, Peru",920 066 775,,-5.178153099999999,-80.68600409999999
ChIJ7_v6eGP7tJER2WzXriRHWEE,Inkafarma,4.3,4.0,"CAL.ALFONZO VILLANUEVA PINILL NRO. 218 CAJAMARCA, Jaén 06801, Peru",,http://www.inkafarma.pe/,-5.7086393,-78.8072485
ChIJ7f0V5RKCupERiwmmJP6cW9M,Botica E Inversiones Anabel EIRL,0.0,0.0,"Jr. Huallaga, San Hilarión 22460, Peru",950 495 127,https://www.facebook.com/BoticaeInversionesAnabel/,-7.0000732,-76.44245769999999
ChIJ7ftzr1VKQpERcXoiXyZz-Po,FARMACIA FASUR,4.2,6.0,"Av. Goyeneche 203, Arequipa 04001, Peru",(054) 226854,https://www.farmaciafasurperu.com/,-16.4013285,-71.52831119999999
ChIJ7ylQgYLIBZER6m8TWgxQZQg,Boticas Perú,4.0,1.0,"Av. Aviación 2990, Cercado de Lima 15018, Peru",(01) 2067000,http://www.boticasperu.com.pe/,-12.0758602,-77.01070949999999
ChIJ81MNBd37NZARAvsdM-hyD4I,Tottus,3.9,2641.0,"Au. Panamericana Nte. 461, Sullana 20102, Peru",(01) 5133355,https://www.tottus.com.pe/,-4.902805,-80.696855
ChIJ81X6faOjNZARF14VmCq18Wo,INKAFARMA,0.0,0.0,"MZ - 40, Jr. Trujillo NRO. 149, Piura 20210, Peru",,http://www.inkafarma.pe/,-4.652830799999999,-80.2398949
ChIJ859lvps9rZERBq13edcif9Y,Neosalud Trujillo,5.0,3.0,"Perú Urb. Santa Inés, Los Rubies 378, Trujillo 13011, Peru",968 413 616,,-8.102053999999999,-79.03897789999999
ChIJ85_eh3W5BZERwoXI6zSPM-w,Mifarma,4.3,3.0,"Av. 1ro de Mayo 20, Villa EL Salvador 15842, Villa EL Salvador 15842, Peru",(01) 6125000,http://www.mifarma.com.pe/,-12.197795,-76.96419929999999
ChIJ87JsGI3TBZERfl6LtHRvXJQ,Boticas Perú,0.0,0.0,"Av. Mariscal Andrés Avelino Cáceres Mz C8 Lote 13, Lima 07061, Peru",(01) 2067000,http://www.boticasperu.com.pe/,-11.875328,-77.127008
ChIJ87zpb0CbRJERvli5Pm23JGU,INKAFARMA,0.0,0.0,"Av. Circunvalacion 101, Moquegua 18001, Peru",(01) 4261899,http://www.inkafarma.pe/,-17.2118002,-70.9567996
ChIJ8SUk8zLGBZER3oRpbIentw4,Boticas Perú,4.6,5.0,"Av San Luis 1489, Cercado de Lima 15021, Peru",(01) 2067000,http://www.boticasperu.com.pe/,-12.0820143,-76.99714759999999
ChIJ8ToShE7VbZERdWQyBAreK5I,INKAFARMA,0.0,0.0,"Av El Sol NRO. 1102, Cusco 08002, Peru",,http://www.inkafarma.pe/,-13.5249554,-71.9728271
ChIJ8UB79XxbrZEROlocVXAlvJc,INKAFARMA,4.7,3.0,"Calle Tren LT 18, ASCOPE 13761, Peru",,http://www.inkafarma.pe/,-7.7398029,-79.1929293
ChIJ8UOJOk6WDpER2XKV_GZFHwk,Mifarma,0.0,0.0,"Sector 17, Ca. Real 745, Huancayo 12000, Peru",,https://www.mifarma.com.pe/locales/,-12.0706392,-75.2091883
ChIJ8WDmEYI9rZERPfsNZKeuxqI,IWENSA SAC distribuidores,0.0,0.0,"Jr. Grau Nº 400 - Stand A-11 C.C. Boulevard, Trujillo 13001, Peru",,,-8.1152465,-79.02593999999999
ChIJ8XDZiOnzZ5ERwkjwT7f3I9M,Farmacia San Francisco,5.0,2.0,"Jr. Huancané, Juliaca 21101, Peru",951 643 802,,-15.4896513,-70.1279187
ChIJ8YRSOQ5KQpERskRRP-e-T3Y,LABORATORIOS PORTUGAL S.R.L.,2.3,3.0,"Miguel Grau 317, Arequipa 04014, Peru",951 953 605,http://laboratoriosportugal.com/,-16.3765936,-71.5617207
ChIJ8ZkrUfe4BZERoqbRmX2LSjY,Mifarma San Juan Miraflores,3.5,4.0,"Av. Miguel Iglesias 977, Distrito de Lima 15801, Peru",(01) 6125000,http://www.mifarma.com.pe/,-12.1601087,-76.9590669
ChIJ8bHZZ5rLBZERiSQNJf9aCUQ,Boticas Perú,3.2,5.0,"Av Saenz Peña 702, Callao 07021, Peru",(01) 2067000,http://www.boticasperu.com.pe/,-12.0605407,-77.13828819999999
ChIJ8dwsDdrjEJERsI_Afm1hCV8,GMO Peru,0.0,0.0,"CAL, Av. Municipalidad 254, Ica 11001, Peru",(0800) 14600,http://gmo.com.pe/,-14.063505,-75.729443
ChIJ8eSTHqnJBZER_6uWXTKWU14,Boticas Perú,3.8,4.0,"Av Javier Prado Oeste 304, Magdalena del Mar 15076, Peru",(01) 2067000,http://www.boticasperu.com.pe/,-12.091026,-77.064837
ChIJ8fG3eX-NM5ARxM8CpBc1oUo,INKAFARMA,0.0,0.0,"CAL, Hilario Carrasco 247, Tumbes 24001, Peru",,http://www.inkafarma.pe/,-3.5677967,-80.4526144
ChIJ8w41j4I9rZERBTzDSNHCfZA,Botica Felicidad,2.5,2.0,"Bolognesi 678, Trujillo 13001, Peru",(044) 227753,https://www.nortfarma.com.pe/,-8.116554899999999,-79.0268061
ChIJ8z7567nPWpEReRLAyxh4W8o,Botica Santa Maria,0.0,0.0,"Tacna 23001, Peru",,,-18.0029849,-70.2431398
ChIJ9-TCcKbJBZERMobsHEIItBI,Boticas Perú,4.8,4.0,"Jr. Bolognesi 260, Magdalena del Mar 15086, Peru",(01) 2067000,http://www.boticasperu.com.pe,-12.0925183,-77.0700619
ChIJ91FGEz7vTJARiCrxmG2Bzek,Promotora Opción - Chiclayo,1.0,1.0,"Panamericana Norte, Chiclayo 14011, Peru",(074) 206175,https://www.opcion.com.pe/,-6.763061299999999,-79.8612547
ChIJ92BDAi7QBZERCGCYqClTRGk,Cadena de Boticas Mifarma,0.0,0.0,"Av. Túpac Amaru, Comas 15327, Peru",,https://www.mifarma.com.pe/,-11.9411571,-77.05011619999999
ChIJ92fNokaXsJERQ2YZOjcZEvM,INKAFARMA,5.0,3.0,"JR. COMERCIO NRO. 504, San José de Sisa, Peru",,http://www.inkafarma.pe/,-6.614005,-76.6928451
ChIJ93E5QmfIBZERFWDVGKtxcWU,Botica Inkafarma,3.2,10.0,"Calle La Perricholi 195, LIMA 15046, Peru",(01) 4261899,http://www.inkafarma.pe/,-12.0924167,-77.0324395
ChIJ93_PynfPWpERwS61QIh_jpc,"Botica ""BONAFARMA""",5.0,1.0,"Av. Patricio Melendez 1290, Tacna 23001, Peru",,https://www.facebook.com/profile.php?id=100010470998823&ref=ts&fref=ts,-18.0011949,-70.25565089999999
ChIJ93lwzM3HBZERxppA-MFC-Sw,MiFarma,3.0,29.0,"Av San Luis 1993, San Borja 15037, Peru",(01) 6125000,http://www.mifarma.com.pe/,-12.0895735,-76.9959659
ChIJ95tNiPXIBZERiAQH9vCS9Vc,Farmacom,3.0,2.0,"Jirón Mariscal Miller 2070, Lince 15073, Peru",,http://www.farmacom.com.pe/,-12.0857161,-77.0372427
ChIJ96iB_V2XDpERO2fDRiw-zeI,INKAFARMA,0.0,0.0,"Jr Ayacucho 200, Tarma 12001, Peru",,http://www.inkafarma.pe/,-12.0649381,-75.2092445
ChIJ99b0hsbfBpERLYcE9sOwXAI,Centro Médico San Gerónimo - Huacho,5.0,1.0,"Avenida 28 de Julio 228, Huacho 15136, Peru",929 489 535,https://www.facebook.com/Centro-M%C3%A9dico-San-Ger%C3%B3nimo-Huacho-698558730518352/,-11.1071813,-77.6065418
ChIJ9QlVOlg9rZER9AWD8APRpgI,INKAFARMA,0.0,0.0,"Jirón Guzmán Barrón N° 899, Trujillo 13008, Peru",,http://www.inkafarma.pe/,-8.126163499999999,-79.0365388
ChIJ9RizQdHHBZER5rqOhjjDbFU,Boticas Perú,4.7,6.0,"Av. Aviación 2744, Lima 15036, Peru",(01) 2067000,http://www.boticasperu.com.pe,-12.095354,-77.00275599999999
ChIJ9W3D02E9rZERR-g7Fmpgry4,Hospital Oncológico de Trujillo,4.1,34.0,"Trujillo 13008, Peru",(044) 253161,http://www.irennorte.gob.pe/,-8.134261,-79.0196529
ChIJ9Y30O1z7tJERJ04V6yGgvd0,INKAFARMA,0.0,0.0,"Av Mesones Muro 090, Jaén 06801, Peru",,http://www.inkafarma.pe/,-5.7104052,-78.8067603
ChIJ9YSwpuEraZER-p0A8hDQ_k0,Farmacia del Ahorro,5.0,3.0,"Jr. Cesar vallejo N° 100 (segundo nivel altura del puente postensado, Sicuani 08254, Peru",999 585 807,,-14.272048,-71.2283642
ChIJ9ZE-6D1NEZERV1Mzlp9f1Ug,BOTICA YAVE,5.0,1.0,"Independencia 188, Palpa 11331, Peru",,,-14.5328176,-75.1845568
ChIJ9cuRMiTJBZER-r5RGck4F4A,Inkafarma Open Plaza Angamos,0.0,0.0,"Av. Angamos 1806, Surquillo 15036, Peru",,http://www.inkafarma.pe/,-12.1122596,-77.0111725
ChIJ9fNDStN_rJERfPeuN3D__Mc,INKAFARMA,0.0,0.0,"Leoncio Prado 493, Santa 02815, Peru",(01) 4261899,http://www.inkafarma.pe/,-8.986193,-78.60732709999999
ChIJ9w7mWbPXbZERUqAvlvBta6k,INKAFARMA,0.0,0.0,"CAL, Tres Cruces De Oro NRO. 224, Cusco 08002, Peru",,http://www.inkafarma.pe/,-13.522616,-71.9818256
ChIJ9wC6MLyXo5ER-6vnxgNXJ3o,INKAFARMA,0.0,0.0,"AV. CENTENARIO MZA. 365 LOTE. 16, Pucallpa 25003, Peru",,http://www.inkafarma.pe/,-8.3972103,-74.600248
ChIJ9wU4iRHIBZERqR-TFOcdr6U,Inkafarma,3.7,7.0,"Av. Angamos 742, LIMA 15047, Peru",(01) 4261899,http://www.inkafarma.pe/,-12.1135193,-77.02377860000001
ChIJ9xhibvlLQpERXDhZWd6hOHQ,INKAFARMA,0.0,0.0,"Ca. Italia NRO. 100, Arequipa 04009, Peru",,http://www.inkafarma.pe/,-16.433657,-71.5318832
ChIJ9y7hkZzJBZER9HnE_ITbMHQ,BOTICA Red Perú,0.0,0.0,"Plaza Bolognesi 532, Breña 15082, Peru",,,-12.0597599,-77.0418094
ChIJ9yaVRGudCZEREuhPDbbSi30,"Botica ""NUEVO AMBERFARMA EIRL""",3.0,1.0,"jr. Eduardo Buzzo #246, Perené 12865, Peru",964 026 405,,-10.9521866,-75.2252977
ChIJ9zfPuejzZ5ERF9NeKXdqEVM,Farmacia Juliaca,3.5,18.0,"Av. Manuel Nuñez Butrón, Juliaca 21104, Peru",,,-15.4930018,-70.1324111
ChIJA0xl7vsXrZERsQvSBM5iSjA,Farmacia Sánchez,5.0,5.0,"Av Blas Pascal 245, Trujillo 13007, Peru",218012,,-8.1039674,-79.00925029999999
ChIJA2x4j5h9EpERdcA_hIh8GWI,INKAFARMA,0.0,0.0,"Jr. Asamblea NRO. 327 URB, Ayacucho 05001, Peru",,http://www.inkafarma.pe/,-13.1572398,-74.2245022
ChIJA3m6606Eq5ERShzyf-L7DSk,Farmacia BAZÁN III,1.0,2.0,"Urb. Pacífico Mz. I2 - Lte. 65A, Av. Pacífico, Nuevo Chimbote 02711, Peru",(043) 316375,,-9.1250761,-78.5279734
ChIJA4g9PDLPBZER5_0N3FFkidg,INKAFARMA,0.0,0.0,"Av. Túpac Amaru 04, LIMA 15333, Peru",(01) 4261899,http://www.inkafarma.pe/,-11.9970501,-77.0545257
ChIJA6YmehMWrZERJmg74816yH8,Inkafarma,4.0,1.0,"Av. Pumacahua 1562, Trujillo 13007, Peru",,http://www.inkafarma.pe/,-8.0879089,-78.99903119999999
ChIJA7QrKG9RrZERYUlk0iZrOS4,INKAFARMA,0.0,0.0,"CAR. PANAMERICANA MZA. B LOTE. 13, Junín 13711, Peru",,http://www.inkafarma.pe/,-7.792982400000001,-79.2238795
ChIJAQAA62lKQpERby_GIJbVnO8,Boticas Y Salud,3.0,2.0,"Real Plaza, Av. Ejercito, Cayma 04014, Peru",(054) 258570,http://www.boticasysalud.com/,-16.3898056,-71.5499545
ChIJAQBAiQqmtZER51z5QgR3T_A,Farmacia Divino Jesus,5.0,1.0,"Santa Rosa 06821, Peru",,,-5.4337833,-78.56706109999999
ChIJAQc9u6uFq5ERmT9khodY9jE,INKAFARMA,0.0,0.0,"MZA. S3 LOTE. 37 URB. BUENOS AIRES ZONAL 3D, Nuevo Chimbote 02711, Peru",,http://www.inkafarma.pe/,-9.1269797,-78.52988069999999
ChIJATYb-M8rbZERU6DxjC8lEhY,Banco de Credito del Peru,3.9,9.0,"Avenida Peru 318, Andahuaylas 03701, Peru",(01) 3421029,http://www.viabcp.com/,-13.656569,-73.3834404
ChIJAU1ECHKXDpERG4XYdVYsCH0,INKAFARMA,0.0,0.0,"AV. FIDEL MIRANDA NRO. 1237, Huancayo 12003, Peru",,http://www.inkafarma.pe/,-12.0769684,-75.2098342
ChIJAUSTUPXHBZERBtVoj4bDXXo,Farmacia Universal,4.1,65.0,"Av. Alfredo Benavides 4652, Santiago de Surco 15038, Peru",(01) 4171800,http://www.farmaciauniversal.com/,-12.1276656,-76.9880484
ChIJAVdLUfM9rZERr3PsOKf6d0U,Inkafarma,4.2,5.0,"Av. América Nte. 1375, Trujillo 13001, Peru",(01) 4261899,http://www.inkafarma.pe/,-8.0939087,-79.0251407
ChIJAWpEZo_PBZERganwMRI0jZ4,Inkafarma,4.0,1.0,"AV. HUANDOY MZA. J LOTE. 16, Lima 15306, Peru",,http://www.inkafarma.pe/,-11.9601924,-77.0761582
ChIJAXv3kZPtTJAR0ep3o5JnuUQ,Inkafarma,0.0,0.0,"CAL. EMILIANO NIÑO NRO.113 (CERCADO) LAMBAYEQUE LAMABAYEQUE, Lambayeque 14013, Peru",(01) 3159015,http://www.inkafarma.pe/,-6.705432999999999,-79.9031727
ChIJAYDCVuLCp5ERUtOEuR5CKdQ,Inkafarma Huánuco,4.0,5.0,"Jr. 28 de Julio 900, Huánuco 10001, Peru",929 929 952,,-9.9301529,-76.23949329999999
ChIJAYH5rQoRSpARi1EQ4ffMn_g,INKAFARMA,0.0,0.0,"Avenida Bolognesi NRO.351, Piura 20001, Peru",,http://www.inkafarma.pe/,-5.2001991,-80.6279249
ChIJAYgzOYQaSpARcasCOLRQDxw,Boticas Fasa,3.7,3.0,"Int. CC Plaza de la Luna, Piura 20001, Peru",,https://www.mifarma.com.pe/,-5.1924636,-80.6399891
ChIJAb-XjS2Fq5ERZS4eUIsPzvw,INKAFARMA,0.0,0.0,"MZA. A LOTE. 01, Nuevo Chimbote 02712, Peru",,http://www.inkafarma.pe/,-9.1134498,-78.51070829999999
ChIJAdtvKjnXBZERPOhxc0K9YlI,INKAFARMA,0.0,0.0,"Av. Puente Piedra NRO. 420, LIMA 15121, Peru",,http://www.inkafarma.pe/,-11.8622189,-77.0771705
ChIJAxX7G5MWrZER1gvCVjsvExQ,InkaFarma,5.0,1.0,"CAL, Jirón San Ignacio 303, TRUJILLO 13101, Peru",,http://www.inkafarma.pe/,-8.0909456,-78.9595432
ChIJB14YOw0XEJERY63d70TIFeo,INKAFARMA,0.0,0.0,"AV. MARISCAL BENAVIDES 427, Chincha Alta 11702, Peru",,http://www.inkafarma.pe/,-13.42553,-76.13671099999999
ChIJB1U1zbZbspER4NxeS8kVOiU,INKAFARMA,0.0,0.0,"Francisco Bolognesi NRO. 583, Cajamarca 06003, Peru",(01) 4261899,http://www.inkafarma.pe/,-7.166353099999999,-78.5065072
ChIJB2lGlYjIBZERbVe_OdTY18Y,Farmacia Mifarma,4.0,3.0,"Av Palermo 456, La Victoria 15018, Peru",(01) 6125000,https://www.mifarma.com.pe/,-12.0797549,-77.0230459
ChIJB6fu3qbJBZER0fZcFk4nGmY,InkaFarma,3.1,8.0,"Jr.Leoncio Prado NRO. 894, Magdalena del Mar 15086, Peru",(01) 4261899,http://www.inkafarma.pe/,-12.0899093,-77.07200929999999
ChIJB7UWkBYZrZERooGjj2M6XaU,INKAFARMA,0.0,0.0,"Gamarra 770, TRUJILLO 13611, Peru",(01) 4261899,http://www.inkafarma.pe/,-8.222326599999999,-78.9736057
ChIJB7h45ovXBZERtrrQcBkURdE,Farmacia Rosyfarma,0.0,0.0,"MZ C LT 1 C.P SAN LORENZO LA COLCA, Carabayllo 15122, Peru",993 760 575,https://farmacia-rosyfarma.negocio.site/?utm_source=gmb&utm_medium=referral,-11.8423278,-77.06412069999999
ChIJB9K2UCDPBZER12nolB6nBh8,Boticas Perú,5.0,1.0,"Av. Honorio Delgado 249, San Martín de Porres 15102, Peru",(01) 2067000,http://www.boticasperu.com.pe/,-12.0218199,-77.05412369999999
ChIJBRs216XQBZERmiPd-15dweI,Inkafarma,3.7,7.0,"18 47, Carabayllo 15321, Peru",,https://inkafarma.pe/,-11.8755355,-77.01638609999999
ChIJBTJLybTIBZERZ2kAP2QM-AU,Farmacia Elyfarma,0.0,0.0,"Jirón Trujillo, Rímac 15093, Peru",,,-12.0411076,-77.0294581
ChIJBTPtOGuXDpERa3EnHklNfb4,INKAFARMA,0.0,0.0,"JR, Huancas NRO. 1204, Huancayo 12001, Peru",,http://www.inkafarma.pe/,-12.0687386,-75.2023713
ChIJBTfXstzNDpERSWQ0MA2d-3c,INKAFARMA,2.0,2.0,"SECTOR J-4, JR. JUNIN NRO. 918, Jauja 12601, Peru",(064) 352544,http://www.inkafarma.pe/,-11.7757483,-75.49940959999999
ChIJBU5AZ5rLBZERyVMGg_o3now,Mi Farma,5.0,1.0,"Av Saenz Peña 701, Callao 07021, Peru",,http://www.mifarma.com.pe/,-12.0601601,-77.138331
ChIJBV-c52PFBZERZ245G_VPAoE,INKAFARMA,0.0,0.0,"A.h San Juan Bautista, III 15006, Peru",,http://www.inkafarma.pe/,-12.0353692,-77.00192650000001
ChIJBV1cLj49rZERpFTpdwqdE8g,Farmacia Aleph,0.0,0.0,"Manuel Seoane 967A, Distrito de Víctor Larco Herrera 13009, Peru",,,-8.1385125,-79.0451881
ChIJBVefW2y5BZERymgwz84wo_o,INKAFARMA,0.0,0.0,"Av San Juan 1116, LIMA 15801, Peru",(01) 4261899,http://www.inkafarma.pe/,-12.155744,-76.9724109
ChIJBXdHW0NKQpERzIhYIR65Vso,Mifarma,0.0,0.0,"Avenida Emmel 115-117, Yanahuara 04001, Peru",,http://www.mifarma.com.pe/,-16.392657,-71.5434042
ChIJBYXgLRS_BZERXcy7oSHaQ4Q,INKAFARMA,0.0,0.0,"INTERIOR 101S, UNION NRO. 600, LIMA 15822, Peru",,http://www.inkafarma.pe/,-12.2084124,-76.9062813
ChIJB_h0OWRtCJERBGMKrLwcErk,INKAFARMA,0.0,0.0,"Av Circunvalacion Tupac Amaru NRO. 101, Cerro De Pasco 19001, Peru",,http://www.inkafarma.pe/,-10.6858529,-76.25672949999999
ChIJBbH5-Hq4BZERBB4xgdbjWtk,Farmacia Farmacáceres,0.0,0.0,"-12.135731,-76.973497, lima 15803, Peru",,,-12.136072,-76.97347549999999
ChIJBbsxwnvvTJAR41U-OV9rNRM,Mi Farma,0.0,0.0,"Elias Aguirre 157, Chiclayo 14001, Peru",(074) 225046,https://www.mifarma.com.pe/locales/,-6.7712251,-79.843871
ChIJBcUQANArbZER1KcnnTF5iD8,Seronica Representaciones E.I.R.L,0.0,0.0,"Avenida Peru 372-A, Andahuaylas 03701, Peru",,,-13.6565157,-73.3826044
ChIJBd-ba_ENqZERPD26allEb1Q,Botica MEDICPHARMA,0.0,0.0,"Huascarán 281, Huaraz 02001, Peru",,,-9.5241439,-77.53098729999999
ChIJBdZK4drIBZER5bbNrFTeJNE,Boticas Perú,4.0,7.0,"Av. República de Venezuela 907, Breña 15082, Peru",(01) 2067000,http://www.boticasperu.com.pe/,-12.055157,-77.0466738
ChIJBe6uZvrVbZER5XVg9UM3WOM,Povea Panaderia Pastelería Ttio,3.8,109.0,"Psj, Los Sauces Ll-10, Cusco 08002, Peru",(084) 228550,,-13.531657,-71.9604945
ChIJBeLEdFzFBZER9g9wTiAqSVQ,MiFarma,0.0,0.0,"Avenida Canto Grande, Manzana N Lote, San Juan de Lurigancho SEMI-RUSTIC PARCELING (INTERIOR LC-102, Lima 150, Peru",(01) 6125000,https://www.mifarma.com.pe/locales/,-11.9669937,-77.0031145
ChIJBeOrDwdGTZARXTS0SMY3cB4,Panificadora Carmelita,5.0,7.0,"Leoncio Prado 17, Pacasmayo 13811, Peru",,,-7.399888499999999,-79.56822729999999
ChIJBfoyIvLnSZARXqbpjZdjnrc,INKAFARMA,0.0,0.0,"V. VICTOR R.HAYA DE LA TORRE MZA. F1 LOTE. 09 A.H, 5 De Febrero, Paita 20701, Peru",,http://www.inkafarma.pe/,-5.0888221,-81.1014143
ChIJBxBovQNLQpERpg5BGCBW41o,Mall Parque Lambramani,4.2,9479.0,"Av. los Incas, Arequipa 04002, Peru",(054) 604242,http://www.parquelambramani.com/,-16.4105589,-71.5204024
ChIJBxis_n4QSpARq-Qon9yxKT0,Botica Felicidad,4.4,7.0,"Cercado Av. Loreto. Esq, Loreto 815, Piura 20008, Peru",(073) 307603,http://www.nortfarma.com.pe/,-5.1962724,-80.63013959999999
ChIJByrdd_vJBZER86FWwPt4jVA,Inkafarma Dante,4.0,1.0,"Jr. Dante NRO. 901, LIMA 15047, Peru",,http://www.inkafarma.pe/,-12.1121435,-77.0235316
ChIJBytHiswfFJER3DSmQVgnnvk,Botica San Cristóbal,0.0,0.0,"Calle Cápac Yupanqui 200-316, Nasca 11401, Peru",,,-14.8458284,-74.9440312
ChIJBzUDxx_IBZERBaI4L0MBrH4,Boticas Perú,3.0,4.0,"Calle Juan Fanning 401, Miraflores 15074, Peru",(01) 2067000,http://www.boticasperu.com.pe/,-12.1290553,-77.03143659999999
ChIJC0Zu34bIBZERDEQ0ROflXc8,InkaFarma,4.0,4.0,"Av. Canadá NRO. 886, LIMA 15034, Peru",,http://www.inkafarma.pe/,-12.0820328,-77.017516
ChIJC35ELhIWrZER6Ib7_6aAqek,Inkafarma,3.3,3.0,"Av Sánchez Carrión 523, Trujillo 13003, Peru",(01) 4261899,http://www.inkafarma.pe/,-8.0852458,-79.0018231
ChIJC5VUYoE9rZER6d2Grf7q2rI,Botica 24 Horas,4.0,2.0,"Jirón Gamarra 731, Trujillo 13001, Peru",(044) 470577,,-8.112377600000002,-79.0247985
ChIJC6QfFVnIBZERsczJQHXO89E,Neosalud,4.2,13.0,"Av Gral Trinidad Moran 570, Lince 15073, Peru",(01) 2212100,,-12.0895618,-77.03799719999999
ChIJC9LkxcCfs5ERi4iewSUmF6Q,Inkafarma,0.0,0.0,"JR, Santa Rosa 585, Chota 06120, Peru",,http://www.inkafarma.pe/,-6.560645999999999,-78.64747179999999
ChIJC9chBeHuTJARF-awfIKQCR8,MARIA LUISA GALLARDO ORELLANO,0.0,0.0,"AA. P.J., Tupac Amaru 565, Arequipa 14009, Peru",991 018 637,http://www.fullcarga.com.pe/,-6.7682521,-79.8554207
ChIJCRMZAZ_FBZERvCHMLyqg598,Boticas Perú,0.0,0.0,"Progreso 118, Ate 15491, Peru",(01) 2067000,http://www.boticasperu.com.pe/,-12.025344,-76.920103
ChIJCRMsuVvOBZER9pXh4t_BHOM,Farmacia Universal,4.0,32.0,"Las Palmeras 3851, Los Olivos 15301, Peru",(01) 4191800,http://farmaciauniversal.com/index.php,-11.9901928,-77.07202269999999
ChIJCT0pGgfJBZERugBw6jWv30w,Mifarma,4.3,3.0,"Av. Gregorio Escobedo 1040, Jesús María 15076, Peru",,https://www.mifarma.com.pe/,-12.0894684,-77.0574714
ChIJCW0ar1VKQpERFlP6R4CwEJE,Mifarma,0.0,0.0,"AVENIDA SIGLO XX, 235 CERCADO AREQUIPA, AREQUIPA, Cercado de Lima 04001, Peru",(01) 6125000,http://www.mifarma.com.pe/locales/,-16.4013281,-71.5283765
ChIJCWcWSjzvTJARjI7b-YlmQ7A,Inkafarma,4.0,1.0,"San Jose 1027, Chiclayo 14001, Peru",,https://inkafarma.pe/,-6.7714593,-79.8359718
ChIJCXW4mObIBZERj7A9dKnnEYU,Mifarma,3.3,11.0,"La Rambla, Av Brasil 702, Breña 15083, Peru",(01) 6125000,https://www.mifarma.com.pe/,-12.066554,-77.0472968
ChIJCXoCPQdGTZARFg0_ZrnalF8,Tottus,3.8,1032.0,"Av. Gonzalo Ugas Salcedo N° 23, Pacasmayo 13811, Peru",(01) 5133355,https://www.tottus.com.pe/,-7.3997139,-79.5673113
ChIJCYzmdRcWrZERosJGsaNeanc,Mifarma,4.0,2.0,"266, Mz. M Lt. 1 El Sol de Chacarero El Porvenir, Trujillo 13006, Peru",(044) 299900,https://www.mifarma.com.pe/,-8.0911826,-79.00690329999999
ChIJC_xuWQp9EpER7v3T7qdaY6w,INKAFARMA,0.0,0.0,"Av. Ramon Castilla NRO. 108, Ayacucho 05001, Peru",,http://www.inkafarma.pe/,-13.1640243,-74.22326
ChIJCbPDLghLQpERYT6Is7eEUa0,Inkafarma,4.5,2.0,"Av. Lima NRO. 701, Arequipa 04006, Peru",,http://www.inkafarma.pe/,-16.4023762,-71.5105832
ChIJCbpDuF17s5ERCBD94m8HWMo,Botica Mifarma,1.0,1.0,"Cutervo 06701, Peru",,https://inkafarma.pe/,-6.3773684,-78.8176175
ChIJCdruLJTjEJERbnYWko4t1-0,INKAFARMA,0.0,0.0,"INT. 22, PLAZA VEA, Ayabaca NRO. 1180, Ica 11001, Peru",,http://www.inkafarma.pe/,-14.0715446,-75.73725879999999
ChIJCf-kOziBq5ERYeL78nlijxU,INKAFARMA,0.0,0.0,"AV. BUENOS AIRES 1989 MZ. M LT. 6A, SANTA 02802, Peru",,http://www.inkafarma.pe/,-9.062105599999999,-78.5807684
ChIJCf562BXIBZERX0fJw8GwXS4,Suiza Farma,0.0,0.0,"Calle, Jirón Inclan, Lima 15074, Peru",,,-12.1134872,-77.0314047
ChIJCxEYkM49rZERaXeHlBLb98c,INKAFARMA,0.0,0.0,"MZA. U LOTE. 05 URB. POPULAR, Av El Cortijo, Trujillo 13011, Peru",,http://www.inkafarma.pe/,-8.0926803,-79.05449759999999
ChIJCxxn4wTJBZERHCWbHdULR54,Inkafarma,4.1,9.0,"Av Antonio José de Sucre 675, LIMA 15084, Peru",(01) 4261899,http://www.inkafarma.pe/,-12.0778202,-77.06464179999999
ChIJCzVeRm8VEJERyEVxiTuCcQg,INKAFARMA,0.0,0.0,"JR. SANTA ROSA NRO. 232, Chincha Baja 11750, Peru",,http://www.inkafarma.pe/,-13.4958001,-76.15337490000002
ChIJCzeho11KQpERBb9xBzAm1Zo,Boticas y Salud,4.0,1.0,"Av. Jose Abelardo Quiñones B-6, Local 2, Yanahuara, Cercado de Arequipa 04013, Peru",(054) 258570,,-16.3972919,-71.54691489999999
ChIJD40BDB-NM5AR-q-1Dfmjjmc,INKAFARMA,0.0,0.0,"A.H. GRAU MZ F LOTE 01, Tumbes 24002, Peru",,http://www.inkafarma.pe/,-3.5564921,-80.4270885
ChIJD4BTXhXJBZER32lelTu-tFM,INKAFARMA,0.0,0.0,"Av. César Vallejo NRO. 1389, LIMA 15073, Peru",(01) 4261899,http://www.inkafarma.pe/,-12.087961,-77.0456289
ChIJD4_ePdBBppERaR_mOeJw4uU,BOTICA BELLA MARCELITA,0.0,0.0,"Tito Jaime 540, Tingo María 10131, Peru",962 542 197,,-9.2975225,-76.0009201
ChIJD4fLiFtLQpERlDFUBRb-rwk,Universidad Católica San Pablo,4.5,197.0,"s/n, Urb. Campiña Paisajista, Quinta Vivanco, Arequipa 04001, Peru",(054) 605630,https://ucsp.edu.pe/,-16.3900752,-71.5354639
ChIJD5RADoq3BZERhqIPvrLwbwI,INKAFARMA,0.0,0.0,"Vigill Morelli NRO. 221, LIMA 15063, Peru",,http://www.inkafarma.pe/,-12.1438911,-77.01748239999999
ChIJDRSP21TGBZERqlJLc3ja3Xc,Mifarma,3.4,5.0,"Av. Javier Prado Este 4921, Lima 15023, Peru",951 298 401,http://mifarma.com.pe/,-12.0814267,-76.9676927
ChIJDRTKxxENqZERdQt0WJv4CTo,Farma Recuay,4.0,6.0,"José De La Mar, Huaraz 02001, Peru",(043) 421391,,-9.527244699999999,-77.5287633
ChIJDSMSmQXvCZERDlrOtqVweu0,INKAFARMA,0.0,0.0,"Leoncio Prado 112, 19320, Peru",,http://www.inkafarma.pe/,-10.4484616,-75.1552677
ChIJDSMzCirvTJAR4Da4iCGaWFU,Agente BBVA - La Farmaceutica,5.0,1.0,"Eugenio Moya 384, Chiclayo 14001, Peru",,https://www.bbva.pe/,-6.771559099999999,-79.83409019999999
ChIJDUXmG9F_bpERxWGja3ItR1s,INKAFARMA,0.0,0.0,"Av. de La Cultura NRO. 1210, Cusco 08004, Peru",,http://www.inkafarma.pe/,-13.5283727,-71.9398957
ChIJDWT2ThjRBZERsxgu_bvmGeY,Boticas y Salud,1.0,1.0,"Av. Victor Andres Belaunde 111, Comas 15312, Peru",,http://www.boticasysalud.com/,-11.9405218,-77.0506546
ChIJDY1eSNrIBZERUmotR5On8a8,Boticas Y Salud,4.0,3.0,"Av. República de Venezuela 1098, Breña 15082, Peru",,http://www.boticasysalud.com/ubica-tu-botica/,-12.0550223,-77.0490999
ChIJDYd8AfENqZEROPl66WTZ6OA,Q'Farma,0.0,0.0,"Centenario 808, Huaraz 02002, Peru",,,-9.5167973,-77.5302469
ChIJDbqu4NDJBZERlfNJ0b0JCTo,Boticas Perú,3.3,4.0,"Av. la Marina 2993, San Miguel 15087, Peru",(01) 2067000,http://www.boticasperu.com.pe/,-12.076357,-77.09619099999999
ChIJDw_-lzTRBZERf7VXfdyktmA,Mifarma,0.0,0.0,"mz C , Lt 2 Avenida, esquina calle, Ca. Sta. Lucia, Puente Piedra 15118, Peru",(01) 6125000,https://www.mifarma.com.pe/,-11.8653156,-77.0744548
ChIJDzf15DvVbZERWr4gJjEwMxQ,INKAFARMA,0.0,0.0,"LA CONVENCION, Alameda Pachacuteq NRO. 457, Cusco 08002, Peru",,http://www.inkafarma.pe/,-13.5288583,-71.9701161
ChIJDziSsSvXBZERiOr9U8PJUl4,INKAFARMA,0.0,0.0,"INT. 32, Av. Puente Piedra NRO. 1313, LIMA 15118, Peru",,http://www.inkafarma.pe/,-11.8569729,-77.084771
ChIJE-Agxl_PWpER2BgKsHR0b2M,Botica HoFarma,0.0,0.0,"Av. Municipal Cuadra 5 - C.H. Alfonso Ugarte Mz. H3 Lt. 17, Distrito Gregorio Albarracin Lanchipa, Av. Municipal, Tacna 23004, Peru",(052) 632992,,-18.037348,-70.25164269999999
ChIJE-sPf50aSpARj6M6c14YSBk,Inversiones & Cía La Taberna,4.2,39.0,"Av. Luis A Eguiguren 2, Piura 20001, Peru",(073) 313625,,-5.1854561,-80.6337119
ChIJE0FkE0bvTJARkqttbkfrFVE,DROPESAC,4.0,3.0,"Yahuar Huaca 287, La Victoria 14007, Peru",(074) 232634,http://www.dropesac.com/,-6.7919697,-79.8423959
ChIJE0P5NHXfBpERkXvmrdiAfVY,Botica Central,3.6,7.0,"Avenida 28 de Julio 541, Huacho 15136, Peru",989 108 401,,-11.1075674,-77.6094249
ChIJE0wLyo4bSpARhk7qhr9J6Ac,INKAFARMA,0.0,0.0,"CAL. LA MAR NRO. 158 INT. 1, Av Sullana Nte, Piura 20001, Peru",,http://www.inkafarma.pe/,-5.182798,-80.6357352
ChIJE15reVBjFpERjCjfy0i9huc,Botica Medisur,0.0,0.0,"Marcona District 11421, Peru",,,-15.3632816,-75.16593309999999
ChIJE1AZOjLQBZER7VEM07SN490,MiFarma,3.0,2.0,"Av. Victor Andres Belaunde 300, Comas 15312, Peru",(01) 6125000,https://www.mifarma.com.pe/,-11.9389997,-77.0517271
ChIJE1D_PRLIBZERix5BiXk2B9U,Mifarma,4.0,2.0,"Antero Aspillaga, Surquillo 15047, Peru",,http://www.mifarma.com.pe/,-12.1121101,-77.023344
ChIJE1SQMqljEJERj7ffjjHSPfg,FARMACIA PERFUMERIA LC,5.0,2.0,"Av Paracas MZ J Lt 17, Paracas 11550, Peru",981 493 632,,-13.8335177,-76.24770819999999
ChIJE1_W-B3Dp5ER374MveZbvds,Botica G7 Falcon,0.0,0.0,"Jirón Huallayco 1040, Huánuco 10001, Peru",,,-9.9281145,-76.2420413
ChIJE3-JlljjEJER32TktRG9cZE,Boticas Perú,1.0,1.0,"Av. Municipalidad 256, Ica 11001, Peru",(01) 2067000,http://www.boticasperu.com.pe/,-14.063819,-75.730291
ChIJE3vR4s2XDpERKSc2Iq9qGtQ,Mifarma,3.0,1.0,"Sta Beatriz, Huancayo 12002, Peru",(064) 218517,http://www.mifarma.com.pe/,-12.0492505,-75.19545939999999
ChIJE4Gsr_24BZERa5dRsNVYIXQ,FARMACIA PUEBLO,0.0,0.0,"Avenida Héroes del Pacífico, Lima 15066, Peru",4500660,,-12.1692701,-76.9562279
ChIJE4nb2rxPtJERghT7OymIjLc,InkaFarma,0.0,0.0,"Av. Chachapoyas, 3N, Bagua Grande 01621, Peru",,https://inkafarma.pe/,-5.755935399999999,-78.4418678
ChIJE5nf1kFpXZERR_yDCKLAp8E,INKAFARMA,0.0,0.0,"Carr. Panamericana Sur NRO. 319, Puno 21002, Peru",,http://www.inkafarma.pe/,-15.8455083,-70.0250148
ChIJE6fhC8jDp5ERYRZgUnPHVzc,Botica Arcangel Miguel,0.0,0.0,"Jirón Huallayco 774, Huánuco 10001, Peru",948 823 180,https://botica-arcangel-miguel.negocio.site/?utm_source=gmb&utm_medium=referral,-9.9305907,-76.24374639999999
ChIJE6sDQSM9rZERHng0fpWpoxk,Botica Pacifico,0.0,0.0,"Av. Víctor Larco Herrera 375A, Distrito de Víctor Larco Herrera 13009, Peru",,,-8.1424184,-79.05443129999999
ChIJE8NWAdC5BZERG685lUOX8R8,Inkafarma,2.0,1.0,"JR. TOLOMEO MZA. Q LOTE. 19D LIMA, Chorrillos 15057, Peru",,http://www.inkafarma.pe/,-12.1845164,-76.9990794
ChIJEQeh0jfGBZERhFndE7weOt4,Mifarma,5.0,1.0,"Jr. Garcilazo de la Vega 123, Salamanca, Cercado de Lima 15022, Peru",(01) 6125000,https://www.mifarma.com.pe/,-12.0750204,-76.98805449999999
ChIJERp6OAY7t5ERr_rMF81bFLg,Botica La Inmaculada,0.0,0.0,"Alcides Carrión, Moyobamba 22001, Peru",,,-6.0423218,-76.97047069999999
ChIJETgB1OV7s5ERNGPe1erftHo,INKAFARMA,0.0,0.0,"Jiron Comercio 601, Piura 06701, Peru",,http://www.inkafarma.pe/,-6.3785987,-78.8181085
ChIJEXaEIxaWDpERJpX2URg_Ebw,MiFarma,3.0,1.0,"Av. Huancavelica 2007, Huancayo 12006, Peru",,https://www.mifarma.com.pe/locales/,-12.0540357,-75.22505629999999
ChIJE_6P7GPFWpER_46rJy2edQ0,Inka farma,0.0,0.0,"Calle Daniel Alcides Carrion, Tacna 23002, Peru",,https://inkafarma.pe/,-17.9820927,-70.2359481
ChIJEa3iI1zFBZERJti24RTuMhQ,MiFarma,1.0,1.0,"Avenida Canto Grande, Jazmines 3690, URB, San Juan de Lurigancho 15412, Peru",(01) 6125000,https://www.mifarma.com.pe/locales/,-11.968514,-77.00426379999999
ChIJEbx7SvvpBZERrx7XnHriFXQ,INKAFARMA,0.0,0.0,"LOTE. 18, Av. 15 De Julio MZA. 3, Lima 15483, Peru",,http://www.inkafarma.pe/,-12.0164598,-76.824979
ChIJEcF3B3zGBZERDUwj5DESpLY,MiFarma,5.0,1.0,"Av. Los Ruiseñores 997, Santa Anita 15008, Peru",(01) 6125000,https://www.mifarma.com.pe/,-12.0440123,-76.9700501
ChIJEcWZ51nvTJARNyQrJLh7PIo,INKAFARMA,5.0,1.0,"Av Augusto B. Leguia NRO. 1290, Chiclayo 14002, Peru",,http://www.inkafarma.pe/,-6.762228899999999,-79.8450593
ChIJEwMoJvN9EpERakFNS74Nqcw,Farmacia Huamanga,3.9,9.0,"28 deJulio, Ayacucho 05003, Peru",,,-13.1621572,-74.2268283
ChIJEx3ZL-DuTJARUFLqI6QUoHs,Perulab Express,0.0,0.0,"Av. Salaverry 369, Chiclayo 14011, Peru",(074) 473701,,-6.770807599999999,-79.8543004
ChIJEzXDRGMQSpARFJjYJe_CNDs,Centro Médico Hematológico,4.2,20.0,"Lote 8, Av Guardia Civil Mz. C, Miraflores 20000, Peru",(073) 345594,http://www.centrohematologico.com.pe/,-5.1939582,-80.6206789
ChIJEzdAq-nGBZER6qxzg_fIZU0,Inkafarma,3.2,9.0,"Av. Flora Tristan 691, LIMA 15024, Peru",(01) 4261899,http://www.inkafarma.pe/,-12.0672804,-76.9438723
ChIJF0BiUdsrbZERSfpN5U1MyA8,Ronco Perú,4.0,1.0,"malecon mil amores 333, Andahuaylas 03701, Peru",,,-13.659261,-73.39319309999999
ChIJF1HMPP37NZARvBcwuhM2p6I,Inkafarma,0.0,0.0,"Av Sta Rosa NRO. 399, Sullana 20103, Peru",,http://www.inkafarma.pe/,-4.8964264,-80.69461969999999
ChIJF6DVuuDRBZERtPjTvZj4ozE,Remfarma,2.5,2.0,"Mz, Av. 2 de Octubre 22, Lima 15307, Peru",,,-11.9489777,-77.0802325
ChIJF7RSmsPIBZERS0dDDjanS3E,Boticas Perú,5.0,1.0,"Avenida Alfonso Ugarte 1020, Cercado de Lima 15082, Peru",(01) 2067000,http://www.boticasperu.com.pe/,-12.0527223,-77.0425735
ChIJF8r3jIAzTZARS1BD8zBlhy0,Botica ISSAFARMA Chepén,5.0,4.0,"Exequiel Gonzales Caceda 899, Chepén 13871, Peru",,,-7.2270419,-79.42866520000001
ChIJFRPY1dajZ5ERlCfK2OkS5kU,INKAFARMA,0.0,0.0,"Jr puno NRO. 913, Huancané 21316, Peru",,http://www.inkafarma.pe/,-15.2011166,-69.765017
ChIJFSb2aOzPWpER0RImy2AJ4sk,Inkafarma,1.0,1.0,"Bolivar 894-802, Tacna 23001, Peru",,https://inkafarma.pe/,-18.0112109,-70.2457928
ChIJFTLrfwgMupERc3xG7vYCIcQ,Botica la inmaculada,5.0,2.0,"Jirón Martínez de Compañón 130, Tarapoto 22202, Peru",(042) 528318,,-6.487981899999999,-76.36092359999999
ChIJFTeHJlpKQpERyhWWjHc5MRI,Boticas Fasa,3.0,2.0,"Calle Pte. Bolognesi, Arequipa 04001, Peru",(054) 202044,https://www.mifarma.com.pe/locales/,-16.3985608,-71.5387799
ChIJFYOyTyrOBZERdDI0DzLQY-c,Mifarma,5.0,1.0,"Av. Universitaria 5823, Comas 15311, Peru",(01) 6125000,https://www.mifarma.com.pe/locales/,-11.9549583,-77.0602321
ChIJF_pCWpsVEJERuLIgwdn4mqs,Farmacia Señor de Los Milagros,4.0,2.0,"Plaza de Armas 0126, Chincha Baja 11701, Peru",961 599 198,,-13.4588942,-76.1619654
ChIJFabLY-HDp5ERZhqVodwUYsw,INKAFARMA,0.0,0.0,"Los Proceres Nº 232, Huánuco 10003, Peru",,http://www.inkafarma.pe/,-9.935291999999999,-76.2494133
ChIJFbthameZBZER7qo79JgJKo0,INKAFARMA,0.0,0.0,"JR, Los Flamencos 299, Lima 15851, Peru",,http://www.inkafarma.pe/,-12.373321,-76.7902
ChIJFeP033w9rZERHYm_MfW-V6Y,Agricola Alpamayo,5.0,3.0,"Calle Nº, Ca. Titu Cusi Huallpa 112, Trujillo 13007, Peru",,,-8.125370799999999,-79.0221644
ChIJFer8lFr5bZERsSutKalCE90,INKAFARMA,0.0,0.0,"AV. AMAZONAS NRO. S/N, Calca 08770, Peru",,http://www.inkafarma.pe/,-12.9409547,-72.0953482
ChIJFws6-PXBC5ERYILd3NmE04Q,INKAFARMA,0.0,0.0,"Manuel Prado NRO 212, Satipo 12261, Peru",,http://www.inkafarma.pe/,-11.2552724,-74.6363317
ChIJFyuviOJHTZARI89D2AFMlZI,INKAFARMA,0.0,0.0,"INT. 5, Av. Gonzalo Ugas Salcedo NRO. 23, Pacasmayo 13811, Peru",,http://www.inkafarma.pe/,-7.399942499999999,-79.56680610000001
ChIJG04PaDhbspERkQyDyL4Yq_8,Shalom Botica,4.5,2.0,"Av Larry Jhonson 822, Cajamarca 06003, Peru",,,-7.182887399999999,-78.4886673
ChIJG0Uy_IXFQZERuduST5FBO5A,INKAFARMA,0.0,0.0,"Av. 21 de Marzo S/N, Aplao, Peru",,http://www.inkafarma.pe/,-16.0766864,-72.48745250000002
ChIJG0VKII7XBZERkpY70izxSRU,INKAFARMA,0.0,0.0,"Buenos Aires 2317 2317, LIMA 15118, Peru",,http://www.inkafarma.pe/,-11.8467216,-77.0977838
ChIJG1IhoC7QBZERvmhJkFcBJn8,Mifarma,0.0,0.0,"Av. Túpac Amaru 5731 - 5733, Comas 15312, Peru",(01) 6125000,https://www.mifarma.com.pe/,-11.9452386,-77.0505785
ChIJG2QzKT3IBZERT6KUbMpTpvo,Farmacia Lungfarma,5.0,1.0,"Av. José Pardo 708, Miraflores 15074, Peru",,,-12.1188731,-77.0359636
ChIJG40N8LLDp5ERXgg4LGpfYKQ,"Botica ""El Nazareno",0.0,0.0,"Leoncio Prado 857, Huánuco 10001, Peru",962 942 858,,-9.9295671,-76.245688
ChIJG4ne0SDvTJARY0Mhv8NdD5A,Botica Econosalud,0.0,0.0,"Av, Federico Villarreal 285, Chiclayo 14009, Peru",(074) 228714,,-6.7732201,-79.8468273
ChIJG556pAPEBZERDTYQYo-h7zM,Mi Farma,5.0,2.0,"Av. Javier Prado Este 9852, Cercado de Lima 15012, Peru",,https://www.mifarma.com.pe/,-12.0328005,-76.92758210000001
ChIJG6TlxnicRJERCvItN83p_Is,INKAFARMA,1.0,1.0,"AV. SANTA FORTUNATA MZA. C5 LOTE. 14, Mariscal Nieto, Moquegua 18001, Peru",,http://www.inkafarma.pe/,-17.2079283,-70.9476578
ChIJG8um7fN9EpERtjqrWSnN6mw,MasPharma,3.0,1.0,"Jirón Bellido 515, Ayacucho 05003, Peru",(066) 310527,http://www.maspharma.com.pe/,-13.1587701,-74.2246454
ChIJG91EaN_VbZERlUjy5Fm_VfM,botica señor del cabildo,4.0,1.0,"Calle Belen 670, Cusco 08002, Peru",,,-13.523901,-71.9800106
ChIJG9cVatjBuZERrdL9AmRYWC0,INKAFARMA,0.0,0.0,"CAL. ZAMORA 507- NRO. 509, Yurimaguas 16501, Peru",,http://www.inkafarma.pe/,-5.8849946,-76.1302098
ChIJG9wr6cjjEJERSYuCQpTCUTA,BOTICA VIRGEN DEL ROSARIO - ICA,3.7,14.0,"INTERIOR B, Calle Callao 263, Ica 11002, Peru",(056) 409403,http://indicaperu.com/Empresas.php?IDE=1125&IDC=11&IDSC=1&IDSCS=0,-14.0617987,-75.72935869999999
ChIJGQZeS_m3BZERuJCXRTExrxY,SG Farma Del Peru,0.0,0.0,"Calle 10, Cercado de Lima 15067, Peru",,,-12.1949839,-77.02030959999999
ChIJGSM4XgVbRJER3BKEI7YuQRs,InkaFarma,2.8,5.0,"Jirón Moquegua No. 332, Ilo 18601, Peru",(053) 484919,,-17.6454739,-71.3453865
ChIJGV9UrlVKQpERNOlTIkCAgKw,Farmacia Corporación Fasurperu,0.0,0.0,"A, Avenida Siglo XX 233, Arequipa 04001, Peru",(054) 221676,http://www.farmaciafasurperu.com/,-16.4012827,-71.5284559
ChIJGVbFhv_IBZERpeH3zg6bjg8,InkaFarma,2.0,6.0,"CAL, Las Palmeras, Cercado de Lima 15076, Peru",(01) 6209104,http://www.inkafarma.pe/,-12.0849845,-77.05217379999999
ChIJGWOzWRS4BZERYsI7P0VzdCM,Botica Daniella,0.0,0.0,"AV, El Sol 170, Santiago de Surco 15054, Peru",(01) 2745859,,-12.1471575,-76.99041559999999
ChIJGWkabwE9rZER2Y_QCJMZMeM,Boticas Perú,0.0,0.0,"Av. América Nte. 2291, Trujillo 13001, Peru",(01) 2067000,http://www.boticasperu.com.pe/,-8.102455299999999,-79.03258369999999
ChIJGXzojOHCp5ERnyfTPI31MUk,La Curacao,4.3,8.0,"Calle Huánuco 680, Huánuco 10001, Peru",(01) 2002870,http://www.lacuracao.pe/,-9.930599599999999,-76.2413104
ChIJGY_N3Wb5NZAR5FsClWhIrRM,Rustica,3.7,265.0,"ZONA INDUSTRIAL MUNICIPAL Nº 2 MZ. CC. REAL PLAZA, Sullana 20103, Peru",(073) 501324,http://www.rustica.com.pe/,-4.917751,-80.69609899999999
ChIJGZGqYvXIBZERef0EOQKNftw,Boticas y Salud,3.7,26.0,"Av. Arenales, Lince 15073, Peru",(01) 6550000,http://www.boticasysalud.com/,-12.0857217,-77.0355204
ChIJG_GsVsH7NZARQY8vF4vJqPA,Farmacia Mifarma,2.0,2.0,"Av Sta Rosa 331, Sullana 20103, Peru",,https://mifarma.es/,-4.896191,-80.6942475
ChIJGa_IVPHQBZERCAgPheerVQc,InkaFarma,3.2,5.0,"AV. SAN FELIPE NRO. 773 LIMA LIMA, Comas 15313, Peru",(01) 3142020,http://www.inkafarma.pe/,-11.901353,-77.039425
ChIJGag1Yrg9rZERFeZoi840SnE,Botica Easy Farma,0.0,0.0,"Mz. S Lote 4 Urb. San Francisco, Huanchaco 13000, Peru",,,-8.0962275,-79.1001399
ChIJGbppfu43B5ERYy-tSBaMnrE,Inkafarma,1.0,3.0,"Bolognesi 189, Barranca 15169, Peru",,https://inkafarma.pe/,-10.7533125,-77.75959879999999
ChIJGd5LlaBLQpERyDnsj4Y0xas,INKAFARMA,0.0,0.0,"MZA. H LOTE. 7, Arequipa 04007, Peru",,http://www.inkafarma.pe/,-16.4090471,-71.4981167
ChIJGdPNF3F_bpERCQACTqVetP4,INVERSIONES SAMUEL,0.0,0.0,"Manzana I Lote 1 Villa Rinconada, Cusco 08006, Peru",991 932 586,https://www.paginasamarillas.com.pe/empresas/representaciones-samuel/cusco-80622190,-13.5477284,-71.89551689999999
ChIJGe49SWont5ERNcSJfQ0iB_o,INKAFARMA,0.0,0.0,"PJ. 7 JUNINO 199, Rioja 22826, Peru",,http://www.inkafarma.pe/,-6.057048399999999,-77.1657716
ChIJGeUhTmu5q5ERvuORsVcCe1Q,INKAFARMA,0.0,0.0,"LOTE. 3, Luis Ormeño NRO. 0, Casma 02661, Peru",,http://www.inkafarma.pe/,-9.474557599999999,-78.29788119999999
ChIJGf-_pCe5BZERDXuUP6s_pRg,Boticas Perú,5.0,1.0,"Av. 26 De Noviembre 107, Lima 15817, Peru",(01) 2067000,http://www.boticasperu.com.pe/,-12.1722085,-76.93195539999999
ChIJGyWlLe7FBZERt6gJfna41Uo,InkaFarma,4.0,2.0,"Av Gran Chimu 916, LIMA 15401, Peru",(01) 4261899,http://www.inkafarma.pe/,-12.0250503,-76.99841289999999
ChIJH5soLn_FBZERagiPod_oipM,Boticas Perú,4.5,2.0,"Av. 13 de Enero 2272, San Juan de Lurigancho 15434, Peru",(01) 2067000,http://www.boticasperu.com.pe/,-11.992692,-77.005123
ChIJH7trBcjjEJERNF6cuKdz2uI,Farmacia MitFarma,1.0,1.0,"BALNEARIO HUACACHINA (COSTADO DEL, HOTEL SAND Y LIKE, Ica 11001, Peru",,,-14.0868164,-75.76398010000001
ChIJH8fkiiV_cpERwXA9X2DIy80,INKAFARMA,5.0,1.0,"AV. EL PUENTE 279- NRO. 283, Quillabamba 08741, Peru",,http://www.inkafarma.pe/,-12.864972,-72.6927338
ChIJH9iuAaf5p5ER38wBMQkDZ6M,INKAFARMA,0.0,0.0,"MZ. 18, Av. Universitaria NRO. 878, HUANUCO 10450, Peru",,http://www.inkafarma.pe/,-10.29805,-76.3302221
ChIJHQgmSNrIBZERgobgdq0FWno,Super Boticas Hollywood,4.0,22.0,"Av. República de Venezuela 1100, Cercado de Lima 15082, Peru",(01) 6143333,http://www.sbh.com.pe/,-12.054978,-77.0492581
ChIJHUYxy9LVbZERfIcbSq1Tcpw,Ferreteria ACEROSUR,3.5,4.0,"Avenida, Av. Huayruropata 901, Cusco 08002, Peru",(084) 656731,,-13.5243902,-71.9654923
ChIJHUzNF2ycRJERFTsDiAsnsvg,Inkafarma,3.5,4.0,"Av Balta NRO. 350, Moquegua 18001, Peru",(053) 462996,http://www.inkafarma.pe/,-17.1925716,-70.93600459999999
ChIJHW44g1KWDpERZkTny9Sb6Po,FERREBOOM,3.6,49.0,"Huancayo 12001, Peru",999 050 145,,-12.0713321,-75.2034848
ChIJHZTranvPBZEROq8QZpO3GX8,Boticas Perú,0.0,0.0,"Av. Marañon 607, Los Olivos 15304, Peru",(01) 2067000,http://www.boticasperu.com.pe/,-11.9720656,-77.07074460000001
ChIJH_BUKD3IBZERzZcgPc-dBS0,Boticas Perú,0.0,0.0,"Av. José Pardo 708, Lima 15074, Peru",(01) 2067000,http://www.boticasperu.com.pe/,-12.1188095,-77.03613109999999
ChIJHak_cevFWpER65uQfaDbmc4,INKAFARMA,0.0,0.0,"Av. Jorge Basadre Grohmann Sur NRO. 1678, Tacna 23003, Peru",,http://www.inkafarma.pe/,-18.0108612,-70.23405480000001
ChIJHcGO_B85B5ERXvRuH6VcqPc,InKafarma,5.0,1.0,"Av. Francisco Vidal NRO. 650, BARRANCA 15162, Peru",,http://www.inkafarma.pe/,-10.7966579,-77.71490709999999
ChIJHdRdT-D7tJER3hzJDPhHFqk,Botica Mi Farma,4.0,1.0,"Av. Mariscal Ramon Castilla 214, Jaén 06801, Peru",,http://www.mifarma.com.pe/,-5.7091064,-78.8081086
ChIJHf5KDITDBZERt4W8W6O2AQc,INKAFARMA,0.0,0.0,"Av. Nicolás Ayllón NRO. 582, LIMA 15491, Peru",,http://www.inkafarma.pe/,-12.0249191,-76.9165763
ChIJI-tMQlFKQpERrJV57uZdsc4,Farmacia Gama,4.0,1.0,"Calle Peral, Arequipa 04001, Peru",(054) 281346,https://www.paginasamarillas.com.pe/empresas/farmacia-gama-srl/arequipa-504861,-16.3969992,-71.53184159999999
ChIJI-xiprcNqZERrU6Dk4FiwMA,APUFARMA,0.0,0.0,"Diego Ferrer 460, Huaraz 02001, Peru",,,-9.5318779,-77.5199062
ChIJI3I7jUK5BZERuKIJ485IzM8,INKAFARMA,0.0,0.0,"Interior 185, 28 de Jullo, Huaral 15817, Peru",,http://www.inkafarma.pe/,-12.1772872,-76.9385207
ChIJI6efYMxHNpARZm3sU9sVcfY,BOTICA SERVIMED LAB,0.0,0.0,"José Abelardo Quiñones A-18, Piura 20811, Peru",(073) 259465,https://botica-servimed-lab.negocio.site/?utm_source=gmb&utm_medium=referral,-4.5968205,-81.25750529999999
ChIJI76M6Vijs5ERLpqjz8MlgK0,"Farmacia ""BAMBAMARCA""",0.0,0.0,"Jr, Alfonso Ugarte 390, Bambamarca 06116, Peru",(076) 797390,,-6.680565499999999,-78.5203392
ChIJI86tO8-9BZEREPE05MFfUwE,Inkafarma,3.7,3.0,"JR, Av Manuel Valle NRO. 28, LIMA 15823, Peru",,http://www.inkafarma.pe/,-12.2292166,-76.8630159
ChIJIReNeSZms5ER7L_rt45wSXU,Farmacia del Tio Oscar,5.0,1.0,"10A, Distrito de Huambos 06653, Peru",,,-6.4526997,-78.9605467
ChIJIUeBTZTfBpER2AJ6Q4x54x4,INKAFARMA,0.0,0.0,"Primer Nivel, Calle Colón 601, Huacho 15074, Peru",,https://inkafarma.pe/,-11.1094066,-77.6137972
ChIJIUvSUWD7tJERi1N0mepvoYU,INKAFARMA,0.0,0.0,"CAL, Sta Rosa 957, Jaén 06801, Peru",,http://www.inkafarma.pe/,-5.7056078,-78.8109749
ChIJIWzWy-ppXZERRsrzjPU9B6c,Farmacia Del Sur,1.0,1.0,"Jiron Fermin Arbulu 183, Puno 21001, Peru",,,-15.8377584,-70.0268363
ChIJIXKauxI9rZEROoZ37bprVK8,INKAFARMA,3.3,3.0,"INT. 01, Av Teodoro Valcárcel NRO. 266, Trujillo 13001, Peru",,http://www.inkafarma.pe/,-8.1015376,-79.0355835
ChIJIXn9Ho8NqZERMxSUIV4MiZA,INKAFARMA,0.0,0.0,"NRO. 107, Centenario 103, Huaraz 02002, Peru",,http://www.inkafarma.pe/,-9.5229994,-77.5287024
ChIJIZcL01UP6pERGUU7ESnO9ZU,BOTICA MI DOCTOR,5.0,1.0,"Carr. Iquitos-Nauta 525, Iquitos 16008, Peru",916 802 368,,-3.7892543,-73.29941200000002
ChIJI_q0T26HEpER6FhJQNpqE-Y,Inkafarma,0.0,0.0,"Av. Arenales NRO. 850 A, Ayacucho 05002, Peru",3159000,http://www.inkafarma.pe/,-13.1711768,-74.2024237
ChIJIdluGs4qaZERfq1GSJ0oKsI,FARMAWASI,0.0,0.0,"CORPORACIÓN CORRALES-ACHAHUANCO, 14 de Octubre, Sicuani 08254, Peru",,,-14.2726923,-71.2273573
ChIJIemlUFy4BZERAzrfgmYw44o,Boticas Perú,5.0,1.0,"Av los Heroes 491, San Juan de Miraflores 15803, Peru",(01) 2067000,http://www.boticasperu.com.pe/,-12.1533563,-76.97256329999999
ChIJIf7BPj65BZERHcLNibdBmeo,Boticas Perú,0.0,0.0,"Av Los Proceres 139, Cercado de Lima LIMA 33, Peru",(01) 2067000,http://www.boticasperu.com.pe/,-12.1487914,-76.9864135
ChIJIfmG7miXDpERpyJXKGhKlAI,INKAFARMA,0.0,0.0,"INT. 3, Av. Ferrocarril NRO 1021, Huancayo 12004, Peru",(01) 4261899,http://www.inkafarma.pe/,-12.0522772,-75.2143334
ChIJIfwgOVF_bpER3dAJCG_TqOc,El Gallo más Gallo,3.9,8.0,"Avenida De La Cultura J-12 – Urb. Quispicanchi, Cusco, Cusco 08003, Peru",(084) 255459,,-13.5276304,-71.9450299
ChIJIy0eFgbJBZERNSKY5cNRwO8,InkaFarma,3.0,4.0,"Av. la Marina 590, LIMA 15084, Peru",(01) 4261899,http://www.inkafarma.pe/,-12.0830532,-77.0669755
ChIJIyPGP05FTZARfE39wV2yICs,INKAFARMA,0.0,0.0,"PZA. PLAZA DE ARMAS NRO. 312, Pacasmayo 13811, Peru",,http://www.inkafarma.pe/,-7.4040051,-79.565078
ChIJJ-B23b5TqZERMPzkARwRjRc,InkaFarma,3.0,3.0,"Jirón Sucre, Caraz 02167, Peru",,https://inkafarma.pe/,-9.0486924,-77.80963760000002
ChIJJ1m5zb3iEJER4MOUntVBh9o,Inkafarma,5.0,1.0,"Av. Municipalidad NRO. 267, Ica 11001, Peru",936 460 728,http://www.inkafarma.pe/,-14.0639469,-75.7303776
ChIJJ3QGax0NqZER-YUjCPd0_HQ,"Farmacia ""Angeles""",4.0,3.0,"Jirón Simón Bolívar 705, Huaraz 02001, Peru",(043) 236477,https://www.facebook.com/farmaciangeleshz,-9.5297778,-77.5277023
ChIJJ4AyIhdENpARquvYEpc_AHY,felicidad botica,0.0,0.0,"Av Grau, Talara 20811, Peru",,,-4.5791396,-81.269589
ChIJJ5FPMFdKQpERRXTWnda2VV0,InkaFarma,3.3,15.0,"CAL, Calle Mercaderes 402, Arequipa 04001, Peru",(054) 201565,http://www.inkafarma.pe/,-16.3997697,-71.53278999999999
ChIJJ8_3YAVbRJERQdIaNPZUUOM,Botica Santa Lucia,3.8,10.0,"28 De Julio, Ilo 18601, Peru",(053) 482429,,-17.6453716,-71.3451947
ChIJJQBIRVRpXZERlaI_Rg3Kwls,INKAFARMA,0.0,0.0,"JR, Cusco NRO. 320, Yunguyo 21001, Peru",,http://www.inkafarma.pe/,-15.8424713,-70.02984459999999
ChIJJQIXeI-Bq5ERL9RgZ45X134,INKAFARMA,0.0,0.0,"AV. VICTOR R.HAYA DE LA TORRE NRO. 4522, Chimbote 02803, Peru",,http://www.inkafarma.pe/,-9.0721136,-78.58886960000001
ChIJJQU7mHPWbZER4wiENSjkD3g,KUNA Portal de Belen,3.6,7.0,"Casa Nº115, Plaza de Armas, Portal Belen, Cusco 08002, Peru",(084) 256833,http://kuna.com.pe/,-13.5168942,-71.97754979999999
ChIJJRkj8GoLupERfXZ40RVQPHQ,INKAFARMA,0.0,0.0,"Av Salaverry C-08, Tarapoto 22201, Peru",,http://www.inkafarma.pe/,-6.4810832,-76.3785419
ChIJJTr0UviXDpERGi_tLNyprWU,Tottus,4.0,1333.0,"Pro San Carlos, Jr. Parra del Riego #266, Huancayo 12001, Peru",(01) 5133355,https://www.tottus.com.pe/,-12.0627842,-75.2098359
ChIJJUbnNCrDp5ER_x_GUQ9aayw,INKAFARMA,0.0,0.0,"R. DOS DE MAYO NRO. S/N INT. LC05 LOTE. 02, Huánuco 10001, Peru",,http://www.inkafarma.pe/,-9.920764799999999,-76.2410843
ChIJJVAp64HFWpERDH6MF5c5smc,Botica Panda,0.0,0.0,"Basadre Y Forero 2290, Tacna 23001, Peru",(052) 413318,https://boticapanda.business.site/,-17.998825,-70.236342
ChIJJWCs26cNupERKfh-1lPkuI0,MoneyGram,2.0,2.0,"Jr. Jimenez Pimentel 222-226, Tarapoto 22202, Peru",(042) 521583,http://global.moneygram.com/pe/es,-6.489126499999999,-76.36070749999999
ChIJJYQiUtrHBZERkEPVKC91ap8,Farmacia Universal,3.9,107.0,"Av. Aviación 2880, San Borja 15036, Peru",(01) 4171800,http://www.farmaciauniversal.com/,-12.097765,-77.0025
ChIJJYn9V3HHBZERIImwA38RcuE,INKAFARMA,0.0,0.0,"CAL. RODRIGUEZ, Sarmiento NRO. 145, LIMA 15018, Peru",(01) 4261899,http://www.inkafarma.pe/,-12.0741169,-77.00968030000001
ChIJJYry6dMnt5ERdJSGIAx2lkI,Inkafarma,0.0,0.0,"Jirón Dos de Mayo 528-516, Rioja 22826, Peru",,http://inkafarma.pe/,-6.0627597,-77.1664235
ChIJJ_IHAcAgCZERPMgNH6YFu0A,INKAFARMA,2.7,7.0,"Jr. Lima 639, Tarma 12651, Peru",(01) 4261899,http://www.inkafarma.pe/,-11.4197357,-75.6903061
ChIJJacv681_bpERD0carQBfhsE,INKAFARMA,0.0,0.0,"Av de la Cultura NRO. 3155, Cusco 08003, Peru",,http://www.inkafarma.pe/,-13.5267609,-71.948109
ChIJJb4TtPlaspERKhmynt06m0c,Topitop,3.6,66.0,"Jr, Jr. Apurimac 950, Cajamarca 06001, Peru",(01) 2020320,http://www.topitop.pe/,-7.154506,-78.51755399999999
ChIJJerFz2VpXZERkVFNmYIpBvk,INKAFARMA,0.0,0.0,"JR. LOS INCAS NRO. S/N, Puno 21001, Peru",,http://www.inkafarma.pe/,-15.8357795,-70.0220238
ChIJJfB9VP7AC5ERTC0bTN2bpBc,Botica El Carmen EIRL,5.0,1.0,"Jr. Colonos Fundadores 490, Satipo 12261, Peru",,,-11.2525213,-74.6374551
ChIJJfxPFO3PWpERUPJx6QEF9_Q,Botica Salufarma,0.0,0.0,"Av. Municipal, Tacna 23004, Peru",,,-18.0438642,-70.251296
ChIJJwzmvgi5BZERViAMpKt0YMM,Botica FarmaUniversal,5.0,3.0,"La Merced De Lima Mz F Lt 29, Calle 8, San Juan de Miraflores 15828, Peru",(01) 2923930,https://www.facebook.com/Botica-FarmaUniversal-192301084221134/,-12.1840556,-76.95973649999999
ChIJJxZKL1PXbZERzyjngmvhk1U,Inkafarma,0.0,0.0,"CAL, Ayacucho 175, Cusco 08002, Peru",(01) 4261899,http://www.inkafarma.pe/,-13.5199699,-71.9781876
ChIJJz4sJuLCp5ERAUmyCSiDuBk,INKAFARMA,0.0,0.0,"JR. CENTENARIO NRO. 330, Huánuco 10001, Peru",,http://www.inkafarma.pe/,-9.928140899999999,-76.2415753
ChIJK-Oxj3nOBZERPgi-MsIBnGE,Boticas Perú,4.0,1.0,"Av. Los Chasquis Mz J Lote 12, Lima 15109, Peru",(01) 2067000,http://www.boticasperu.com.pe/,-11.9905168,-77.09678889999999
ChIJK1QUW7ziEJERsMW3yuJJHBc,BOTICA VENECIA,0.0,0.0,"Calle Callao 186, Ica 11002, Peru",(056) 229203,http://indicaperu.com/Empresas.php?IDE=2&IDC=11&IDSC=1&IDSCS=0,-14.0625293,-75.72905
ChIJK397Sm89rZERNVwlnf5LPDY,Money Gram,2.8,6.0,"Prol. Cesar Vallejo 1345 Mod. 30 Cc Real Plaza, Trujillo 13008, Peru",(044) 284746,http://global.moneygram.com/pe/es,-8.1321675,-79.0322809
ChIJK4to94RBppERBvwNz89E9xM,Botica Flores,0.0,0.0,"Jr. Callao 552, 10131, Peru",,,-9.3030299,-76.0012175
ChIJK63lE52aM5ARiNy535ZmOkk,Botica Felicidad,3.0,3.0,"Esquina Av. 28 de Julio y Av. Arica, Av 28 de Julio, Zarumilla 24151, Peru",(072) 561416,,-3.5016841,-80.2749479
ChIJK8zWG93JBZERMFfbgioz4Sc,INKAFARMA,0.0,0.0,"Av. dos de Mayo NRO. 478, Provincia de Cañete 15073, Peru",,http://www.inkafarma.pe/,-12.0909794,-77.03695309999999
ChIJK99WG6XIBZER_HFeD2gRKp4,Botica SaluFarma,0.0,0.0,"Jr. Lucanas 250, Cercado de Lima 15001, Peru",,,-12.053812,-77.01977330000001
ChIJKU-ZfNfuTJARWk3rQiaa6Zw,Boticas Perú,0.0,0.0,"Av Pedro Ruiz 790, Chiclayo 14001, Peru",(01) 2067000,http://www.boticasperu.com.pe/,-6.767962,-79.8405087
ChIJKVBtAB-9BZERbQjeOp5Ax_A,MiFarma+,5.0,1.0,"Jirón Tarapacá 108, Lurín 15823, Peru",(01) 6125000,https://www.mifarma.com.pe/,-12.2766632,-76.8691656
ChIJKW6YVVZKQpERq36mnqRDkuQ,Luciano (tai loy,3.8,251.0,"Calle Perú, Arequipa 04001, Peru",953 941 967,,-16.4014037,-71.53347839999999
ChIJKa6t_AcMupER_ic2dqHD5Hk,Farmacia San Jose,4.1,7.0,"Av. Lima 282, Tarapoto 22202, Peru",(042) 532137,,-6.4876418,-76.3629684
ChIJKbyPwP7jEJERAvN-zdQ7OXQ,INKAFARMA,0.0,0.0,"NRO. S/N SEC. CENTRO MANSILLA SUB LOTE 1, Ica 11001, Peru",,http://www.inkafarma.pe/,-14.0746275,-75.73409529999999
ChIJKcqawvFaspERQ8K6t-j0th0,Mifarma,3.9,7.0,"Av Hoyos Rubio, Cajamarca 06001, Peru",976 267 193,http://www.mifarma.com.pe/,-7.149095,-78.5101425
ChIJL1tH_0vnSZARg_k-Ie4k6Tg,Baul De Jaku,5.0,1.0,"Ciudad roja mza j 1 lote 2, Paita 20701, Peru",965 100 077,https://web.facebook.com/www.bauldejaku.com.pe/,-5.0969677,-81.1155726
ChIJL2E8KhjIBZERjJVD-ehcKOM,Boticas Perú,3.6,7.0,"Av. José Pardo 233, Miraflores 15074, Peru",(01) 2067000,http://www.boticasperu.com.pe/,-12.1192875,-77.0308144
ChIJL788kE8bSpAR1uic0Gu374A,INKAFARMA,0.0,0.0,"Av. Circunvalación 16, Piura 20007, Peru",(01) 4261899,http://www.inkafarma.pe/,-5.1938976,-80.6514661
ChIJL7FIGgkMupERoO0JW8oEZQE,Diario Voces,3.8,23.0,"Jr. Pedro de Ursúa 410, Tarapoto 22202, Peru",(042) 503843,http://www.diariovoces.com.pe/,-6.4909,-76.35991299999999
ChIJL966EvlaspERtNdbJSqYMU0,Inkafarma,3.3,6.0,"Jr.Amazonas 688, Cajamarca 06002, Peru",(01) 4261899,http://www.inkafarma.pe/,-7.1564843,-78.5163578
ChIJLQSIhFXAC5ERaskppJ4pC7w,Farmacia Tania,4.0,1.0,"Jirón Augusto Hilser 398, Satipo 12261, Peru",,,-11.2559257,-74.6367021
ChIJLQujXubDp5ERt0AygKtE7t0,FarmaTodo,0.0,0.0,"Jirón Huallayco 1793, Huánuco 10001, Peru",(062) 780884,,-9.920812399999999,-76.237303
ChIJLUBmzB0pbZERYcmt_9KkGqw,Aceros Perú,0.0,0.0,"Av. El Ejército 411, Andahuaylas 03701, Peru",983 955 913,http://www.acerosperusac.com/,-13.6552371,-73.36900969999999
ChIJLXOFdAdGTZARAuy71OJeYdI,Inkafarma,3.1,9.0,"JR, Leoncio Prado NRO. 33, Pacasmayo 13811, Peru",(044) 521740,http://www.inkafarma.pe/,-7.4005053,-79.56844889999999
ChIJLZGbc8DPBZERFkWeZcwRE9o,INKAFARMA,0.0,0.0,"Av Alfredo Mendiola 6301 Interior A1 Mz 2L, LIMA 15306, Peru",,http://www.inkafarma.pe/,-11.9546585,-77.0699601
ChIJLZrhZCnzZ5ERtqTYI9k6ei4,Essen,4.7,12.0,"Benigno Ballon 1079, Juliaca 21101, Peru",950 938 423,http://www.essenla.com/,-15.488103,-70.1258481
ChIJLZzrTggMupERSzZ0Pk-kazk,InkaFarma,4.0,3.0,"Jirón Martínez de Compañón NRO. 501, Rioja 22202, Peru",,http://www.inkafarma.pe/,-6.4900075,-76.3630481
ChIJLew_IPw6t5ERXlxaGZa2nuQ,INKAFARMA,3.0,1.0,"JR. SAN CARLOS NRO. 577, Moyobamba 22001, Peru",,http://www.inkafarma.pe/,-6.0419882,-76.97006689999999
ChIJLxAO-YI9rZERnUeFt_cgexY,Farmacia Isis - Bolívar,4.4,12.0,"Jirón Bolivar, Trujillo 13001, Peru",(044) 204996,,-8.113822599999999,-79.0280815
ChIJLxvH6TA9rZER-RpLQRutWGg,Farma Market,5.0,1.0,"Los Zafiros 284, Trujillo 13006, Peru",920 755 308,https://www.paginasamarillas.com.pe/empresas/farma-market/trujillo-80633062,-8.1030438,-79.0362683
ChIJLy__mJ0a6pERQO9m4keOPiM,INKA FARMA,4.0,3.0,"Augusto Freyre NRO. 801, Iquitos 16002, Peru",,http://www.inkafarma.pe/,-3.739786699999999,-73.2446446
ChIJLzKA1nVTtJER2DuBsCbH5EQ,INKAFARMA,0.0,0.0,"MZ 121 LT 8, Av Héroes del Cenepa NRO. 1200, Bagua 01721, Peru",,http://www.inkafarma.pe/,-5.6375246,-78.53211189999999
ChIJLzw2TGYLrpERajrS3USKZxU,INKAFARMA,0.0,0.0,"MZA. 37 LOTE. 2C, ALTO, Ascope 13370, Peru",,http://www.inkafarma.pe/,-7.8948395,-77.9215663
ChIJM28Y83I9rZERQYmINOICr7M,IncaFarma,0.0,0.0,"Av. Larco 1199, Trujillo 13008, Peru",,http://www.inkafarma.pe/,-8.1257237,-79.0395841
ChIJM2gTmOXVbZERaUYUNhRCK3c,Botica Farma Luz,0.0,0.0,"Plazoleta Belén 382, Cusco 08002, Peru",,,-13.5312786,-71.9683577
ChIJM7c0M4DjEJER8lXGdSlQFx8,CORPORACION LYACOS EIRL (Droguería Lyacos),4.0,2.0,"Las Turquesas Mz-F, Ica 11000, Peru",990 196 542,https://www.corporacionlyacos.net/,-14.0798997,-75.72713569999999
ChIJMWz_GtQNqZER34647Kgl4AQ,Inkafarma,4.3,4.0,"Luzuriaga 488, Huaraz 02001, Peru",,http://www.inkafarma.pe/,-9.5261154,-77.5287792
ChIJMX83LRa9BZERw_evQTiJce8,INKAFARMA,0.0,0.0,"CAL, Av. Antigua Panamericana Sur S/N, Lima 15823, Peru",,http://www.inkafarma.pe/,-12.2543503,-76.8911747
ChIJMX8kykzFWpERREQT4WmqZ74,Inkafarma,0.0,0.0,"Av Cnel. Mendoza NRO. 1888, Tacna 23001, Peru",(01) 4261899,http://www.inkafarma.pe/,-17.9998669,-70.238275
ChIJMYnaogo3B5ER78mNshfoKb4,Inkafarma,0.0,0.0,"JR. PROGRESO NRO. 123, URB. INDEPENDENCIA MZ-E, Barranca 15169, Peru",,http://www.inkafarma.pe/,-10.7500042,-77.7623332
ChIJM_8ql13jEJERVWJcUEfWTSk,AHF Perú en Ica,0.0,0.0,"J.J. Elias 175, Ica 11004, Peru",(056) 306158,http://pruebadevihgratis.pe/,-14.06539,-75.7323327
ChIJMa_sUXw9rZERur0t95WyUyU,Inkafarma,4.0,1.0,"AV. AMERICA SUR 2333 MZA. V LOTE. 26 URB. SANTA MARIA I ETAPA, Trujillo 13006, Peru",(044) 203628,http://www.inkafarma.pe/,-8.1229461,-79.02219960000001
ChIJMbgN2EvJBZERgipzUzmYWQI,Farmacia Dermatológica UNIDERMA Perú,5.0,4.0,"Av Cuba 863, Jesús María 15072, Peru",989 574 841,https://farmaciauniderma.com/,-12.0756967,-77.0438757
ChIJMcU-GDmWDpERlnlQPVo6fWQ,Farmacia Socorro,3.0,7.0,"Ca. Real 970, Huancayo 12004, Peru",935 296 919,,-12.0574094,-75.2171563
ChIJMfWhe_F9EpERTUfvzS7hpC4,FARMACIA FARMA CENTER,0.0,0.0,"Av. Mariscal Cáceres 1143, Ayacucho 05001, Peru",(066) 528083,,-13.1572497,-74.2262089
ChIJMf_EKh3PWpERnU_NVTUca4A,INKAFARMA,0.0,0.0,"LTE 25, Calle Eduardo Perez Gamboa MZ B, Tacna 23003, Peru",,http://www.inkafarma.pe/,-18.0375135,-70.2500512
ChIJMwsGFPq9DpERr3qMx-Y6jaA,Universidad Nacional del Centro del Perú,4.2,529.0,"Mariscal Castilla 3909, Huancayo 12006, Peru",(064) 481062,http://www.uncp.edu.pe/,-12.0330464,-75.237332
ChIJMx9733PJBZERjwLXYyNhBYI,Quimder Botica Dermatológica,5.0,3.0,"Av. del Ejército 470, Miraflores 15074, Peru",(01) 7598431,https://www.boticaquimder.com/,-12.1161855,-77.04536329999999
ChIJMyv-IKjvTJARMSz-8f3EXrM,Inkafarma,0.0,0.0,"CAL.MIGUEL DE CERVANTES S. 300 INT. PC18, Chiclayo 14009, Peru",,http://www.inkafarma.pe/,-6.7700798,-79.8549907
ChIJMyxAyrB_bpERyV97aMZOJ2c,INKAFARMA,0.0,0.0,"Calle Clorinda Matto de Turner 3, Cusco 08006, Peru",,http://www.inkafarma.pe/,-13.5458757,-71.887687
ChIJMyxYCmwQ6pERrF5x2FtwIRM,Botica Medisel,4.4,5.0,"Arica 795, Iquitos 16001, Peru",,,-3.755475299999999,-73.248102
ChIJN-zG9k6_BZERFhj_RrV_e8Q,INKAFARMA,0.0,0.0,"Jr. Ancash 1288, LIMA 15822, Peru",,http://www.inkafarma.pe/,-12.2063183,-76.9060184
ChIJN1ajhZr7rJERCg_yRBADM70,Inkafarma Puente Virú,2.7,3.0,"Au. Panamericana Nte. NRO. 299, Puente Virú 13620, Peru",,http://www.inkafarma.pe/,-8.423662700000001,-78.78213459999999
ChIJN40dsBBKQpERiuVmON_xngE,Bionutrec Productos Naturales,0.0,0.0,"Urb. La Pradera, Cerro Colorado 04017, Peru",(054) 659383,https://www.bionutrec.com/,-16.372788,-71.555241
ChIJN4LCSvPTBZERSi1CKW2N66s,Boticas Perú,3.0,1.0,"A. A. Caceres, Ventanilla 07051, Peru",(01) 2067000,http://www.boticasperu.com.pe/,-11.8750101,-77.12710249999999
ChIJN7zLF3IQSpARlqXihaFagWY,Cajeros automáticos del BCP,3.9,8.0,"Tienda 33, Open Plaza Piura, Piura 20002, Peru",,https://www.viabcp.com/,-5.182188399999999,-80.6229074
ChIJNQ5_R9SUTJARQCe6m7xfJDs,Mifarma,3.3,3.0,"Carmona, Ferreñafe 14311, Peru",,https://www.mifarma.com.pe/,-6.6395129,-79.7885282
ChIJNQdNog0RSpARvxjJwQ9WU6E,Boticas Perú,4.0,1.0,"Av. Grau 258, Piura 20001, Peru",(01) 2067000,http://www.boticasperu.com.pe/,-5.195955199999999,-80.6280034
ChIJNRCLrsL7D5ER3w6HPInEi0o,Farmacia Carmelia,4.5,2.0,"Av Ramos 400, Imperial 15701, Peru",(01) 2847076,,-13.0615759,-76.35167059999999
ChIJNSsmu7wnt5ER5bOrXpAEsk0,Farmacia Centralfarma,0.0,0.0,"JR. 2 de mayo #555 JR. teobaldo López, Rioja 22826, Peru",978 930 766,,-6.062871899999999,-77.16700329999999
ChIJNSvMVHnjEJERqvm0sXE_7_g,INKAFARMA,0.0,0.0,"LOTE. 02, Huacachina MZA. B, Ica 11004, Peru",,http://www.inkafarma.pe/,-14.0835941,-75.75295
ChIJNTNVYHPWbZERg0LiSn9-YPk,Farmacia Millenium,3.5,13.0,"Sta Catalina Angosta 163, Cusco 08002, Peru",(084) 241784,,-13.5171926,-71.9773355
ChIJNWHIzqlLQpERerQC0v9VMrc,INKAFARMA,4.5,2.0,"CAL, Elias Aguirre NRO. 300A, Arequipa 04001, Peru",(01) 4261899,http://www.inkafarma.pe/,-16.401489,-71.51648759999999
ChIJNWLQmFc9rZERAzCrv9ocWAk,INKAFARMA,0.0,0.0,"Av. América Nte. 2312 URB, Trujillo 13001, Peru",(01) 4261899,http://www.inkafarma.pe/,-8.1027188,-79.0329965
ChIJNYLyxVe4BZERnzElNZWjifg,Inkafarma,3.8,4.0,"Av. Belisario Suarez NRO. 983, LIMA 15801, Peru",946 367 805,http://www.inkafarma.pe/,-12.1628006,-76.9652401
ChIJNYNk04W4q5ERJXdEwupyBp8,INKAFARMA-CASMA,3.7,3.0,"AV. HUARMEY MZA. I-3, Casma 02661, Peru",,http://www.inkafarma.pe/,-9.4763793,-78.3033494
ChIJNZ-9sWGHEpER5b-aHOqeB9s,Inkafarma,0.0,0.0,"Av. Ramon Castilla NRO. 798, Ayacucho 05002, Peru",3159000,http://www.inkafarma.pe/,-13.1660976,-74.2156907
ChIJNZ4GQ1OHSZARtFP4enLiP1Y,INKAFARMA,0.0,0.0,"CAL. BOLIVAR NRO. 399, Sechura 20691, Peru",,http://www.inkafarma.pe/,-5.5622396,-80.8187744
ChIJN_-vfi8XEJER8tH7yrlh3q8,INKAFARMA,0.0,0.0,"AV. LA FLORIDA NRO. 100 ICA, Chincha Alta 11702, Peru",,http://www.inkafarma.pe/,-13.41918,-76.1325811
ChIJN_CbrUN1CZER3AlUzyuLthU,BOTICA CYZFARMA,0.0,0.0,"Av. Perú 107, La Merced 12856, Peru",,,-11.0613947,-75.3371129
ChIJNaAcmr2VC5ERRmW3tvbl5Jk,INKAFARMA,0.0,0.0,"Avenida del Pangoa 751, SATIPO 12300, Peru",,http://www.inkafarma.pe/,-11.3329617,-74.52915639999999
ChIJNavAaMzIBZERhOMSgXjuEy8,Farmacia Universal,4.0,352.0,"Avenida Emancipación 799, Cercado de Lima 15001, Peru",(01) 4171800,http://www.farmaciauniversal.com/,-12.0449231,-77.0403386
ChIJNbghbXobSpARoBaZz5cY59I,INKAFARMA,0.0,0.0,"CAL.SAN MARTIN 112 - NRO. 114, Calle Huancabamba, Piura 20007, Peru",,http://www.inkafarma.pe/,-5.1854567,-80.6619453
ChIJNdEXFxWBq5ERGkMpUpohyzM,Farmacia BAZÁN I,4.3,6.0,"Jr. Manuel Ruíz 398, Chimbote 02803, Peru",(043) 321872,http://www.farmaciasbazanperu.com/,-9.074936,-78.59080019999999
ChIJNdxZnc_IBZERr3uBGZW6k_Q,PlusFarma,5.0,1.0,"Avenida Alfonso Ugarte 995, Cercado de Lima 15082, Peru",902 649 458,,-12.0517208,-77.0420702
ChIJNfYfs-zWbZERLPD6IrxbzVs,Estación de servicio PECSA-ESTACIÓN DE SERVICIO POROY,3.6,13.0,"3S, Cusco 08001, Peru",,http://www.pecsa.com.pe/,-13.5034927,-72.0162924
ChIJNw73o6bvTJAR8groPFdeZNg,Universidad César Vallejo,4.2,56.0,"Carretera Pimentel Km. 3.5, Chiclayo 14001, Peru",(074) 480210,https://www.ucv.edu.pe/,-6.786763000000001,-79.879361
ChIJO-wQKgYMupER-sudPx5BG7k,Inkafarma,4.2,12.0,"Jirón Martínez de Compañón 101, Tarapoto 22202, Peru",(01) 4261899,http://www.inkafarma.pe/,-6.4878771,-76.36053129999999
ChIJO0Y5Z4M9rZERrqX1KUYcnD4,Quavii,2.4,27.0,"Centro Cívico, Jirón Independencia 467, Trujillo 13001, Peru",(0801) 10001,http://www.gasesdelpacifico.pe/,-8.111056600000001,-79.0290845
ChIJO1VRF9xlEJER1RO_Iud01CI,Farmacia Farmaunión,0.0,0.0,"Calle Comercio 190, Pisco 11601, Peru",,,-13.7113887,-76.203552
ChIJO3U2PrrOBZERBAqap1pQ9WY,Inkafarma,4.2,12.0,"Av. Perú Nº 3606, LIMA 15106, Peru",(01) 4261899,http://www.inkafarma.pe/,-12.0306009,-77.0863773
ChIJO4kDMDhbspER8rvwQxO1sWs,Guesanstylos,0.0,0.0,"Frente al Hospital Regional de Cajamarca, Av Larry Jhonson S/N, Cajamarca 06003, Peru",965 378 557,http://www.guesanstylos.com/,-7.182920999999999,-78.4886891
ChIJO8EENNZpXZERnzVFk5Y4wIY,INKAFARMA,3.5,2.0,"Laykakota NRO. 149, Puno 21002, Peru",,http://www.inkafarma.pe/,-15.8464603,-70.0214386
ChIJO8hDhA7IBZER0_NmHfxwcgA,Inkafarma,3.9,9.0,"Av. República de Panamá NRO. 4828, LIMA 15047, Peru",(01) 3142020,http://www.inkafarma.pe/,-12.1133639,-77.018545
ChIJOQDr94tLQpEREGvizLn6ZK8,Farmacia Sr de los Desamparados,0.0,0.0,"Calle Deán Valdivia 114, Arequipa 04001, Peru",959 013 664,https://bit.ly/2YInhvQ,-16.4011092,-71.5355273
ChIJOTY2-vTIBZERfBSm8B-SDUo,Inkafarma,4.3,4.0,"Av. Arenales NRO. 1755, LIMA 15046, Peru",,http://www.inkafarma.pe/,-12.0821912,-77.0358317
ChIJOWFJN2oQ6pERZ9d8rIIZHSw,BOTICA MARIDIOSE,0.0,0.0,"Ramirez Hurtado 1075, Iquitos 16001, Peru",(065) 222769,,-3.7586069,-73.2481787
ChIJOb-rzUiEq5ER6bOuS_yfqRY,Botica Inkafarma,3.3,6.0,"Av. Pacífico, Chimbote 02711, Peru",952 121 288,http://www.inkafarma.pe/,-9.1234006,-78.5300443
ChIJObF-JQrWbZER7RZ0rTy6WoY,FARMACIA DR. AHORRO,0.0,0.0,"Av. de La Cultura, Cusco 08003, Peru",,,-13.5203096,-71.97034649999999
ChIJOd3fBPC9DpER1vElPjPQZkA,Inkafarma,3.7,3.0,"Mariscal Castilla 4329, Huancayo 12006, Peru",(064) 218517,https://inkafarma.pe/,-12.0292714,-75.2355977
ChIJOdiPOdrnSZARymLCSdAF-WE,INKAFARMA,0.0,0.0,"AV. ALTAMIRANO GRAU S/N, Paita 20701, Peru",,http://www.inkafarma.pe/,-5.0938488,-81.0962172
ChIJOeQgmevGBZERokUtu2REUxA,Boticas & Salud,3.7,7.0,"Av. Los Constructores 1199, Cercado de Lima 15012, Peru",(01) 6550000,http://www.boticasysalud.com/,-12.0623056,-76.94578349999999
ChIJOexSQaH7TJARNiMk3N-9GWE,INKAFARMA,0.0,0.0,"Av. Ramón Castilla 799, LAMBAYEQUE 14000, Peru",(01) 4261899,http://www.inkafarma.pe/,-6.8407861,-79.9349057
ChIJOfxG6_dKQpER-J2vjxuAUcM,Vida Sana E.I.R.L,3.0,1.0,"C. San Juan de Dios 623, Arequipa 04001, Peru",968 806 880,,-16.4057731,-71.5380687
ChIJOweFYZO5BZER6qUvUYNTe3s,INKAFARMA,0.0,0.0,"Av. Prol. Huaylas 402, Lima 15067, Peru",(01) 4261899,http://www.inkafarma.pe/,-12.1950223,-77.001705
ChIJOwvFszPQBZERbIRFBgG1pPI,Boticas Perú,3.0,1.0,"Av. Victor Andres Belaunde 402, Comas 15312, Peru",(01) 2067000,http://www.boticasperu.com.pe/,-11.9380401,-77.0526003
ChIJP4me6_j5rZER62uQPvk6fJg,InkaFarma,5.0,1.0,"Celso Benigno Calderón 199-109, Cajabamba 06351, Peru",,http://inkafarma.pe/,-7.6235864,-78.0464713
ChIJP53yt209rZERfX7QxGxCkHc,Farmacia Isis - Fátima,3.8,10.0,"Av. Fátima 541, Trujillo 13008, Peru",(044) 204996,,-8.1289357,-79.03799889999999
ChIJP5DAy3XWbZERRDrcewRrjlU,Libreria El gran saber,2.3,3.0,"Cruz Verde 357, Cusco 08002, Peru",,,-13.5206027,-71.98040739999999
ChIJP5oDgK5LQpER_s-Bj0FnIYQ,Naturals farmacia especializada,0.0,0.0,"Calle San José 105a, Arequipa 04001, Peru",966 668 855,,-16.3978874,-71.53444379999999
ChIJP90KSLlbRJERg345O_5dHk4,INKAFARMA,0.0,0.0,"MZA. 4 LOTE. 14 A.H. PROG MUNI VIV IV, Ilo 18601, Peru",,http://www.inkafarma.pe/,-17.6311655,-71.3370663
ChIJP9BxyRdENpARJvZLWugJpRc,InkaFarma,3.5,4.0,"Av Grau 79, Talara 20811, Peru",(01) 3142020,,-4.5790973,-81.27271480000002
ChIJP9GDnudbspERZixOG4sL0ko,"BOTICAS LULE, SALUD Y ECONOMIA",0.0,0.0,"Avenida Mario Urteaga 149, Cajamarca 06002, Peru",920 673 499,,-7.1581508,-78.5111218
ChIJPQZ-i7kSCJERnRpNmt6neXg,Farmacia FARMEZ,2.5,2.0,"Jr. Jose Maria Arguedas, Urb Yanacancha, Cerro De Pasco 19001, Peru",977 603 647,,-10.6609688,-76.2533457
ChIJPQhvKlK3BZERo67785JJRXY,Mifarma,0.0,0.0,"Av. Defensores del Morro 2070, Chorrillos 15067, Peru",,http://www.mifarma.com.pe/,-12.1809238,-77.01327739999999
ChIJPRo7LzrFBZER10HORITqDnE,Inkafarma,4.0,6.0,"Heroes Del Cenepa Este, San Juan de Lurigancho 15442, Peru",,https://inkafarma.pe/,-11.9623602,-76.981169
ChIJPSpIlX4KDpERBgoDX8FPVws,Botica Inkafarma,5.0,1.0,"Av. Celestino Manchego Muñoz NRO. 198, Huancavelica 09001, Peru",,http://www.inkafarma.pe/,-12.7874464,-74.9725572
ChIJPVNe-FGaM5ARCYjb13fPDq0,Farmacias Cruz Azul,4.7,6.0,"Huaquillas, Ecuador",,http://www.farmaciascruzazul.com/,-3.4798237,-80.2381458
ChIJPXpRJ98CbZERkCCaOGgV13Y,BOTICA TUFARMA,4.0,1.0,"Ave Diaz Barcenas 529, Abancay 03001, Peru",983 626 226,,-13.6354616,-72.8800038
ChIJPYN6cfsb6pERh65mAvuhoKs,FARMATODO,5.0,2.0,"Av. La Marina 2014, Iquitos 16003, Peru",965 616 740,,-3.7185798,-73.2433702
ChIJPYhFiP7VbZERTlFEFXtkBGw,Mifarma,0.0,0.0,"Hermanos Ayar, Cusco 08003, Peru",,https://mifarma.es/,-13.5242843,-71.95703739999999
ChIJPYtpA9aPupERBcDWspBpY_U,INKAFARMA,0.0,0.0,"Av. Leoncio Prado NRO. 645, Tocache 22360, Peru",,http://www.inkafarma.pe/,-6.9915295,-76.23270350000001
ChIJPZZ0RE8fFJERKerGaji_NW4,Clínica Panta,0.0,0.0,"11400, Ignacio Morsesky 329, Nasca 11400, Peru",,,-14.8269207,-74.9407579
ChIJPZvjGVs9rZER4VI5oKTlAE4,Novafarma,5.0,2.0,"Av. Pablo Casals 571, Urb, Trujillo 13001, Peru",(044) 202504,https://www.novafarma.com.pe/,-8.100841299999999,-79.04413799999999
ChIJPZzqePT9tJERpI8HOVT21jw,INKAFARMA,0.0,0.0,"CUADRA 7, Av Mariscal Castilla NRO. 793, Jaén 06801, Peru",,http://www.inkafarma.pe/,-5.703903599999999,-78.809733
ChIJP_JB-1x_bpEROi-NJeT0Gbs,Botica Isabel,0.0,0.0,"Cusco 08006, Peru",,,-13.5393464,-71.9424449
ChIJPeIy2TXGBZERR0HAeIrEM1E,Farmavet del Perú,4.4,33.0,"Avenida Circunvalación, 2510 San Luis, Cercado de Lima 15022, Peru",(01) 4983384,,-12.078175,-76.9891549
ChIJPeT9D_nLBZER7Fi14FsnwQM,MiFarma,3.8,5.0,"Centro Comercial Minka, Interior. Avenida El Faro Avenida Argentina 3093 Callao Municipalidad Metropolitana de Lima, Callao 07001, Peru",(01) 2130760,https://www.mifarma.com.pe/,-12.0471648,-77.1112162
ChIJPfKewduJBpERLdT5dlGxyqI,INKAFARMA,0.0,0.0,"CAL, Calle Lopez de Zuñiga NRO. 283, HUARAL 15131, Peru",,http://www.inkafarma.pe/,-11.5637711,-77.2699185
ChIJPwTzTLs7rZERN5BgqL6BwsA,INKAFARMA,0.0,0.0,"Jiron Francisco Bolognesi No. 684, TRUJILLO 13000, Peru",(01) 4261899,http://www.inkafarma.pe/,-8.077427499999999,-79.11890489999999
ChIJPwpBjSDPBZERCf8r1aaYKtY,Boticas y Salud,4.0,1.0,"Av. Honorio Delgado 325, Cercado de Lima 15102, Peru",,http://www.boticasysalud.com/ubica-tu-botica/,-12.0230312,-77.0550628
ChIJPwzIfHRssJERXGWGO2pf85k,BOTICA MEDIC-FARMA,5.0,2.0,"Jr. Eduardo P. Meza 800, Juanjuí 22601, Peru",953 609 523,,-7.181130400000001,-76.7284763
ChIJPxBZM5jJBZERjZyZezJyj0w,Boticas Perú,5.0,1.0,"Av. Simón Bolivar 830, Pueblo Libre 15084, Peru",(01) 2067000,http://www.boticasperu.com.pe/,-12.071383,-77.060715
ChIJPyCQ4uvCp5ERFdGe_9QgyVM,INKAFARMA,5.0,1.0,"Micaela Bastidas NRO. 412, Huánuco 10003, Peru",(062) 515130,http://www.inkafarma.pe/,-9.944334999999999,-76.2429966
ChIJPyQreU9tCJERVyd7yhaBctY,Mifarma,0.0,0.0,"Jiron San Cristobal 279, Cerro De Pasco 19001, Peru",,https://www.mifarma.es/,-10.6842901,-76.2564076
ChIJQ1cKf1lpEJERQoolkHORtoI,Farmacia San Clemente SAC,0.0,0.0,"Manco Capac 100-128, Pisco 11631, Peru",,,-13.68257,-76.157263
ChIJQ4X0AaF_rJERsgMIYeO7aAU,INKAFARMA,0.0,0.0,"JR. RIO SANTA 309 MZA. G LOTE. 09, Santa 02816, Peru",,http://www.inkafarma.pe/,-8.9857637,-78.6155843
ChIJQ7OGcAdGTZARO4MCow0ZGFU,Boticas Perú,4.5,2.0,"Calle Ladislao Espinar 80, Trujillo 13811, Peru",(01) 2067000,http://www.boticasperu.com.pe/,-7.401053999999998,-79.568264
ChIJQ9cqSfhaspERcveHCnsAwiI,Inkafarma,0.0,0.0,"Jr.Amazonas 408, Cajamarca 06001, Peru",(01) 4261899,http://www.inkafarma.pe/,-7.154884999999999,-78.5183468
ChIJQQgnbQbHBZERqHPTVbZBP_0,INKAFARMA,0.0,0.0,"Int 101, Los Fresnos 37, LIMA 15008, Peru",(01) 4261899,http://www.inkafarma.pe/,-12.0452609,-76.9715986
ChIJQTOazbbHBZERKeo8SQfSGag,INKAFARMA,0.0,0.0,"INT. 8, Av. Javier Prado Este NRO. 2060, LIMA 15036, Peru",(01) 4261899,http://www.inkafarma.pe/,-12.0884993,-77.0047416
ChIJQUrVHATEBZERTGU5_7Iv09U,Boticas Peru,3.0,1.0,"Asoc. Civil Rabindranath Tagore Mz. E Lote 7, Lima 15494, Peru",(01) 2067000,http://www.boticasperu.com.pe/,-12.0294639,-76.9241696
ChIJQVdbMpc9rZER0ROZtQqZ76k,Farmacia Isis,3.6,7.0,"Los Zafiros 162, Trujillo 13011, Peru",(044) 345284,,-8.103601099999999,-79.0364445
ChIJQW_IwlyWDpERuH0I2_a4-G4,Inkfarma,0.0,0.0,"Av. Daniel Alcides Carrion NRO. 1581, Huancayo 12004, Peru",,http://www.inkafarma.pe/,-12.0735653,-75.2208656
ChIJQXyJ_Rs9rZERcqemrv6RW-s,INKAFARMA,0.0,0.0,"AV. PROLONG, Cesar Vallejo NRO. 1356, Trujillo 13002, Peru",,http://www.inkafarma.pe/,-8.082526399999999,-79.027682
ChIJQY6AUkfIBZERar1SB9zb24A,Inkafarma,1.0,1.0,"INT. 05, Av. Camino Real 1301, LIMA 15073, Peru",,http://www.inkafarma.pe/,-12.107756,-77.0391449
ChIJQbW3DwXJBZERlWTn4Z77mCk,Farmacias Peruanas,4.0,2.0,"Victor Alzamora 147, La Victoria 15034, Peru",3159000,https://www.linkedin.com/company/farmacias-peruanas/,-12.0833647,-77.0122143
ChIJQbtr0_TIBZER2eW5JhVsqwc,Farmaderm Peru,4.4,11.0,"Av. Ignacio Merino 1805, Lince 15046, Peru",(01) 4700670,,-12.082357,-77.032681
ChIJQc3CJwHJBZERNAsoiWixj8Y,Boticas Perú,3.7,3.0,"Av Brasil 2680, Pueblo Libre 15084, Peru",(01) 2067000,http://www.boticasperu.com.pe/,-12.084057,-77.061438
ChIJQdpSDD_5rZERLGzx6IM3_Bk,INKAFARMA,0.0,0.0,"NORTE, Jr. Bolognesi S/N, Cajabamba 06351, Peru",,http://www.inkafarma.pe/,-7.620956899999999,-78.0452217
ChIJQyrHKhMQ6pERJrj-RSoTl9Y,Diremid Iquitos,3.5,2.0,"Fanning, Iquitos 16001, Peru",,,-3.7533586,-73.25301460000001
ChIJQzdgNArDBZERi7RxcAot0zU,INKAFARMA,0.0,0.0,"Monte Azul de Santa Rosa Residencial Mz C Lt 3 Lima, Ate 15487, Peru",,http://www.inkafarma.pe/,-12.0153092,-76.874213
ChIJQzkv3dXyM5AR8c-9AXLiTyU,"Financiera Crediscotia, Tumbes",2.5,2.0,"Calle Bolivar 157, Tumbes 24001, Peru",(072) 526127,http://www.crediscotia.com.pe/,-3.5704162,-80.4598358
ChIJR-hN-4AbSpARIohWLd7tqzE,INKAFARMA,0.0,0.0,"JR. FRIAS NRO. 796 LOTE. 01 (MZ-14, Piura 20009, Peru",,http://www.inkafarma.pe/,-5.1782884,-80.6548882
ChIJR-xPhOTDBZERuTHUEu9VGvA,Inkafarma santa clara,3.7,3.0,"Avenida La Estrella NRO. 242, Ate 15487, Peru",(01) 3562831,http://www.inkafarma.pe/,-12.016646,-76.8844385
ChIJR0g9UIbFBZERuw1RWSYGTy0,Farmacias Líder,1.0,1.0,"A, Av. Proceres de la Independencia 1768, San Juan de Lurigancho 15431, Peru",(01) 4597133,https://www.facebook.com/lider.salud/,-12.0039094,-77.0067938
ChIJR0sToeHJBZERLpATj-bzUIg,Farmacia de la Clínica de Especialidades Medícas,2.5,2.0,"Av. Andrés Aramburú 273, Miraflores 15046, Peru",(01) 4120909,https://www.especialidadesmedicas.org/servicio/farmacia,-12.1030948,-77.0298411
ChIJR2upBmfFBZER2mOYqtO918U,Farmacia Universal,4.3,12.0,"Av. República de Polonia 600, Lima 15419, Peru",(01) 4171800,http://www.farmaciauniversal.com/,-11.9747176,-77.0020907
ChIJR68v8jPRBZER5nNoz3dGriI,MiFarma,0.0,0.0,"Centro Comercial Hipermercado Tottus, Av. Puente Piedra 322, Puente Piedra 15118, Peru",(01) 6125000,http://www.mifarma.com.pe/,-11.8685462,-77.0731228
ChIJR8Kqnq6LSZAR61z_B5qpvio,INKAFARMA,0.0,0.0,"AV. LIMA 227 URB, 20620, Peru",,http://www.inkafarma.pe/,-5.3467954,-80.8765205
ChIJR8YGjXzGBZER5G6q8DuVsGc,Farmacia Cruz Farma,4.5,2.0,"Antúnez de Mayolo 383, Cercado de Lima 15008, Peru",,,-12.0470284,-76.9686806
ChIJR8nUup3LBZERMKujy0Cj-9k,INKAFARMA,0.0,0.0,"Av. Miguel Grau NRO. 308, LIMA 07021, Peru",,http://www.inkafarma.pe/,-12.0649995,-77.1477427
ChIJR9H39vJ9EpERm9o9pvJUHVQ,Botica Romero,1.5,2.0,"Miguel Grau 111, Ayacucho 05003, Peru",,,-13.1607595,-74.2277093
ChIJRVW_dc_7NZARsOkCWba4ic0,Boticas Perú,0.0,0.0,"Calle 2 800, Sullana 20102, Peru",(01) 2067000,http://www.boticasperu.com.pe/,-4.898458,-80.687045
ChIJRWO8CurIBZER-AoQfuCK4UA,MiFarma,3.0,2.0,"Av. Inca Garcilaso de la Vega 1900, Cercado de Lima 15046, Peru",(01) 6125000,http://www.mifarma.com.pe/locales/,-12.0635041,-77.0378363
ChIJRY6RLwYMupERZAH7CrQBP1o,CrediScotia Financiera,5.0,5.0,"Plaza Mayor 185, Tarapoto 22202, Peru",(042) 527006,http://www.crediscotia.com.pe/,-6.4872559,-76.3600173
ChIJRYfQh6pbRJER5mqh76A_-QU,Lote en venta Urb. Amauta J-32,3.1,8.0,"Av. Pedro Huilca Tecse 2, Ilo 18601, Peru",984 313 418,http://www.urbania.pe/,-17.6512165,-71.3326797
ChIJR_PH3wAMupERec5GaJag5zM,Botica mi Diogo,5.0,1.0,"Jr. Perú, Tarapoto 22202, Peru",,,-6.4814952,-76.3609645
ChIJRcLY8UhLQpER2LhEYE5_q0I,INKAFARMA,0.0,0.0,"Av. Guardia Civil 234, Arequipa 04009, Peru",(01) 4261899,http://www.inkafarma.pe/,-16.4245724,-71.5122631
ChIJRe-DYaObppERWa9ynvCZemU,INKAFARMA,0.0,0.0,"JR. SARGENTO LORES NRO. 108, Aguaytia 25551, Peru",,http://www.inkafarma.pe/,-9.0395542,-75.5101255
ChIJRfZ9QF3VbZER354SQ3S798U,MoneyGram,1.0,2.0,"Av El Sol 382, Cusco 08002, Peru",(084) 221231,http://global.moneygram.com/pe/es,-13.5201264,-71.9769939
ChIJRyJwp4WBq5ERSw8NSiFm2j8,Mifarma,0.0,0.0,"Jirón Ladislao Espinar 511, Chimbote 02803, Peru",,https://mifarma.es/,-9.0731944,-78.59253679999999
ChIJRzRYyPO4DpERr79guIsIibo,Inkafarma,3.5,2.0,"Jr. Bolivar 394, Concepción 12126, Peru",,http://www.inkafarma.pe/,-11.9181072,-75.31335
ChIJRzWm6lTDp5ERAXj2d0R_Fxg,INKAFARMA,0.0,0.0,"JR. INDEPENDENCIA NRO. S/N, Huánuco 10001, Peru",,http://www.inkafarma.pe/,-9.9269907,-76.2454018
ChIJRzbVBVKWDpERTqAFkUqYT-8,Mifarma,0.0,0.0,"Jr. Cajamarca 262, Huancayo 12000, Peru",,https://www.mifarma.com.pe/locales/,-12.0716995,-75.2065155
ChIJS0RvCpIaSpAR6XgUqvUWEjM,InkaFarma (Piura 9),3.0,9.0,"Av. Grau 2197, Piura 20007, Peru",(073) 603121,,-5.188528799999999,-80.6505122
ChIJS1ssd3NssJERLpo6tTysmW8,Fashion Moviles Distribuidor Autorizado de Movistar,3.7,29.0,"Jirón Huallaga 625, Juanjuí 22601, Peru",942 690 228,https://www.facebook.com/FashionMovilesSac/,-7.180687000000001,-76.726976
ChIJS1uRXgVbRJERLPAygScNvoY,Arcángel,3.5,2.0,"Jirón Moquegua 306, Ilo 18601, Peru",(053) 482381,,-17.6455945,-71.3457035
ChIJS20znQ9bRJERcjf92_QrHSM,Botica San Antonio,5.0,3.0,"Calle Zepita, Ilo 18601, Peru",(053) 481001,,-17.6448655,-71.3452484
ChIJS2N7EHidRJERscRnNNN98cI,INKAFARMA,0.0,0.0,"Ilo 332, Moquegua 18001, Peru",(01) 4261899,http://www.inkafarma.pe/,-17.1967881,-70.9348468
ChIJS2UrzS5bspERYFeC_pre6pE,INKAFARMA,0.0,0.0,"Jr. Belaunde Terry 140, Cajamarca 06003, Peru",(01) 4261899,http://www.inkafarma.pe/,-7.178671700000001,-78.5060392
ChIJS34nnABXb5ERTTL3Hn-BeSU,Inkafarma,0.0,0.0,"NRO. 500, Plaza 28 de Julio, Macusani 21251, Peru",,http://www.inkafarma.pe/,-14.0684861,-70.4314292
ChIJS50eStJlEJERP8zPmVzSQE8,Inkafarma,5.0,1.0,"Calle Comercio 175, Pisco 11601, Peru",(01) 4261899,http://www.inkafarma.pe/,-13.7112628,-76.20346769999999
ChIJSRowRCbtTJARqRO7_IOGwh0,INKAFARMA,0.0,0.0,"CAL, Federico Villarreal NRO. 690, Lambayeque 14013, Peru",,http://www.inkafarma.pe/,-6.703757299999999,-79.90951609999999
ChIJSSNy1oo9rZER16tIasEfSjQ,Botica Funegra,3.0,3.0,"Av. Salvador Lara 1385, Trujillo 13001, Peru",,https://facebook.com/farmaciafunegrasac/,-8.0948576,-79.0221004
ChIJSUsMRyJ_bpERXJOE4_4itPk,Cusco Explorer Tour Operator,0.0,0.0,"Mariano Castro, Cusco 08006, Peru",(084) 271121,http://www.cuscoexplorer.com/,-13.5384073,-71.9120843
ChIJSZ2mKAHFBZERmYzkUHhKqpA,INKAFARMA,0.0,0.0,"Av. San Martín 509, Huaura 15438, Peru",,http://www.inkafarma.pe/,-11.9742223,-76.9948462
ChIJScNDvmPFWpERoeX7RHD7jrk,Farmacia Arcangel,2.5,2.0,"Internacional, Tacna 23002, Peru",,,-17.9824425,-70.2365315
