place_id,name,rating,user_ratings_total,formatted_address,formatted_phone_number,website,latitude,longitude
ChIJ-0GgN0-9o5ERhA4i-sMHFMY,INKAFARMA,0.0,0,"CAL. GUILLERMO SISLEY MEDINA NRO. 299, Pucallpa 25000, Peru",,http://www.inkafarma.pe/,-8.375968499999999,-74.5415941
ChIJ-0t4CpIaSpARQwRxQxZQHxg,Botica INKAFARMA,3.0,1,"Av. Grau NRO. 2197, Piura 20007, Peru",,http://www.inkafarma.pe/,-5.188528799999999,-80.6505122
ChIJ-QYQ4wWrtpERzN_ErbNZ5Ps,Farmacia Chuquichaca,0.0,0,"Grau 553, Chachapoyas 01001, Peru",,,-6.2295734,-77.8718628
ChIJ-Tkg99jVbZERXrwBOLah7R0,Boticas KillaPharma (Minoxidil Kirland),5.0,1,"A Una Cuadra De La, Avenida Santiago, Cusco 08000, Peru",988 976 000,https://www.facebook.com/KillaPharma,-13.5252586,-71.98443809999999
ChIJ-dhDv9fFWpER5aq4Tg16Lik,Botica Alba Farma,0.0,0,"Basadre Y Forero 2200-2262, Tacna 23001, Peru",,,-17.9990624,-70.2362066
ChIJ09uxtNy9o5ERpR2xEGNwbMQ,INKAFARMA,0.0,0,"Jr. Antunez de Mayolo NRO. 2999, Pucallpa 25000, Peru",,http://www.inkafarma.pe/,-8.375055699999999,-74.55487699999999
ChIJ0S9nulZKQpEROYiRc1xpexA,Mifarma,0.0,0,"Calle San José 326-324, Cercado De Arequipa 04001, Peru",(054) 202044,https://www.mifarma.com.pe/locales/,-16.3990261,-71.5318037
ChIJ0YwLXyfvTJARmEDpo1_q3I8,Inkafarma,4.3,7,"Av José Leonardo Ortiz 104, Chiclayo 14009, Peru",(01) 4261899,http://www.inkafarma.pe/,-6.771323300000001,-79.8454935
ChIJ0azBam4Q6pEROzOlafyPbrA,Mifarma,0.0,0,"Jirón Próspero 384, Iquitos 16006, Peru",,,-3.7517806,-73.2456725
ChIJ0xD-K5n4rZERd6ZVpmOvm7Y,MiFarma,5.0,1,"Jr. Grau 805, Cajabamba 06351, Peru",,http://mifarma.com.pe/,-7.623931100000001,-78.0455714
ChIJ0yF0qRjxDZERbrv9S74FVcE,INKAFARMA,0.0,0,"Jr. Libertad N.163, Bellavista 09405, Peru",,http://www.inkafarma.pe/,-12.9915792,-74.7238526
ChIJ0yfyrUvvTJAR_aI2QrUBqfk,Boticas Y Salud,5.0,1,"Av. José Balta 1069, Chiclayo 14001, Peru",(065) 550000,http://www.boticasysalud.com/ubica-tu-botica/,-6.769329099999999,-79.8384172
ChIJ14_FiBHIBZERutXlCqeRMsQ,Boticas Perú,3.2,5,"Av. Angamos 726, Surquillo 15047, Peru",(01) 2067000,http://www.boticasperu.com.pe,-12.1135993,-77.02385559999999
ChIJ1UmRWxIbSpARBQQa5FOYXwo,"BOTICA ""EL NIÑO""",5.0,1,"Av. Grau, Piura 20008, Peru",,,-5.183365600000001,-80.6665664
ChIJ1WuycrbIBZERZx6zQXLtTcI,Mi Farma,2.8,6,"Jirón de la Unión 493, Cercado de Lima 15001, Peru",(01) 6190000,,-12.0469389,-77.03188949999999
ChIJ1XiCZ37PWpERouYsN5Hyk20,Inka Farma,4.3,3,"Gustavo Pinto NRO. 355, Tacna 23001, Peru",,http://www.inkafarma.pe/,-18.0047494,-70.2417519
ChIJ1eHL7T19EpERhD8qvvJ3s_Q,BOTICAS QF,4.0,1,"Independencia Nº 277, Ayacucho 05001, Peru",(066) 314284,https://es-la.facebook.com/farmaciasqfperu/,-13.1525204,-74.2235764
ChIJ1ejWcdPyM5ARWYE7lZz9R8E,boticas Felicidad 07,5.0,2,"Calle Bolivar, Tumbes 24001, Peru",,,-3.5659878,-80.4570033
ChIJ1wnBcSt9EpERbxaFipruUQ4,BOTICA DAYANA / AGENTE BCP,3.0,1,"Jr. Carlos F Vivanco 392, Ayacucho 05003, Peru",999 093 436,,-13.1636674,-74.22474179999999
ChIJ1xmzsZ8a6pERkap1C3BekZM,Inka Farma Yavarí,0.0,0,"JR. YAVARI NRO. 1302 P.J. VERSALLES ETAPA II, Iquitos 16002, Peru",,http://www.inkafarma.pe/,-3.7393207,-73.2505293
ChIJ23Yo4OrvTJARqZTnskwa6ck,Mi Farma,4.3,3,"Av Pedro Ruiz 1001, Chiclayo 14001, Peru",(074) 205419,https://www.mifarma.com.pe/,-6.767816799999999,-79.83798829999999
ChIJ2Y9TfH4QSpARsZG7Ge5dvBs,Mifarma,3.6,9,"Jr. Arequipa 796, Piura 20001, Peru",955 215 862,http://www.mifarma.com.pe/delivery,-5.1961319,-80.6276251
ChIJ2ZDCRoY9rZERDJds9nuFzw8,MiFarma,1.0,1,"Av. España 1400, Trujillo 13001, Peru",(044) 299900,https://www.mifarma.com.pe/,-8.1067698,-79.02311759999999
ChIJ2f8FttfuTJAR10A9H307MYo,Mifarma,4.0,13,"Av. José Balta 999, Chiclayo 14001, Peru",969 321 085,http://www.mifarma.com.pe/,-6.7697083,-79.8384672
ChIJ39GbxA7VbZER5DHizcRO1z8,INKAFARMA,0.0,0,"JR. JAQUIJAHUANA MZA. G LOTE. 5, Anta, Cusco 08002, Peru",,http://www.inkafarma.pe/,-13.5280631,-71.96380959999999
ChIJ3cLvUvjLBZERR0IirzhDzcU,MiFarma,0.0,0,"Centro Comercial Minka Avenida Argentina 3093 Callao, Cajamarca 07001, Peru",(01) 2130760,https://www.mifarma.com.pe/,-12.0472071,-77.111712
ChIJ3fjORmfTDZERY_q0jJMhF4I,InKaFarma,4.0,2,"Av. Centenario 216, Pampas 09156, Peru",,http://www.inkafarma.pe/,-12.3988131,-74.86743799999999
ChIJ42CWRu_zZ5ER45t7IAjZtII,Farmacias Y Perfumería San Román,0.0,0,"Jr. San Roman 254, Juliaca 21104, Peru",941 858 687,,-15.4947042,-70.1325153
ChIJ4RD_RtxtCJERe9T5swyh1M4,INKAFARMA,0.0,0,"AV. CIRCUNVALACION ARENALES MZA. F, Cerro De Pasco 19001, Peru",,http://www.inkafarma.pe/,-10.6877725,-76.2551352
ChIJ4S60UVYbCJERIXej5EGHbDk,INKAFARMA,0.0,0,"AV. HUALLAGA NRO. S/N, Huariaca 19120, Peru",,http://www.inkafarma.pe/,-10.4385192,-76.1910233
ChIJ4U5QvXPPWpER2CSyIcwkekI,Botica Señor De Los Milagros,0.0,0,"Gral. Varela 610-590, Tacna 23001, Peru",,,-18.0055057,-70.2469777
ChIJ4cwMdgartpERd9tf5M7ZufI,Mifarma,4.3,3,"Jr. Ortiz Arriet 534, Chachapoyas 01001, Peru",,http://www.mifarma.com.pe/,-6.2294404,-77.87291429999999
ChIJ4zYuPqNbspERb3JSsMcj3u4,Rodrifarma,0.0,0,"Av. Perú 781, Cajamarca 06001, Peru",,,-7.1607875,-78.5218019
ChIJ56kNS_bPWpERQ2PkAEalYEM,Botica Abifarma,0.0,0,"Gustavo Pinto 1197, Tacna 23001, Peru",,,-17.9976187,-70.2448032
ChIJ58S8BX49rZERsHMOOMhsEZI,Farmahogar,0.0,0,"Av América Sur 2055, Trujillo 13007, Peru",,,-8.1207042,-79.0199037
ChIJ59CuBt_VbZEROW9RdWa4H50,BOTICA MULTISERVICIOS FARMAKEL,5.0,1,"Jirón 21 de Mayo, Cusco 08001, Peru",,,-13.5254473,-71.9790223
ChIJ59c0kf5aspERfzEnkmvu8YA,Farmacia Universal,3.7,6,"Jirón Silva Santisteban 300, Cajamarca 06002, Peru",,,-7.160207499999999,-78.5158009
ChIJ5Uqy3iTPWpERTlixl3xQ4ng,Botica Rosita,0.0,0,"Gral. Varela 825-893, Tacna 23001, Peru",,,-18.0032877,-70.24865500000001
ChIJ5W90qdHuTJAREMGdrBb_lkA,Boticas Perú,1.0,1,"Av. José Balta 1795, Chiclayo 14001, Peru",(01) 2067000,http://www.boticasperu.com.pe/,-6.7631081,-79.8376874
ChIJ5YSgVe7Dp5ERYZMBK1Fg-mw,Inkafarma,1.0,1,"Jirón Huallayco 800, Huánuco 10001, Peru",(01) 4261899,http://www.inkafarma.pe/,-9.9302736,-76.24345579999999
ChIJ5_Vl3NbPWpERd5kbngsQ394,Cadena de boticas Arcangel,0.0,0,"Unnamed Road, Tacna 23001, Peru",(0800) 22121,,-18.0128159,-70.2493484
ChIJ60aHG8rIBZER6nEt5NxcGeg,Botica Inglesa,4.0,53,"Jirón Cailloma 336, Cercado de Lima 15001, Peru",(01) 4284081,,-12.0461456,-77.03450649999999
ChIJ61eHBBsNqZER6SSlLXnAJJ4,Mundial Farma,4.0,2,"Av. Mariscal Toribio Luzuriaga 1224, Huaraz 02001, Peru",(043) 429631,http://mundialfarma.com.pe/,-9.534279100000001,-77.5299352
ChIJ65KrxUyWDpERBWyH-EtvXIY,Botica Judith,0.0,0,"Ica 380, Huancayo 12001, Peru",952 081 653,,-12.0674415,-75.20212409999999
ChIJ6Rueif7VbZERKsLzHDruJs4,Botica juanita,2.0,2,"Hermanos Ayar 200, Cusco 08002, Peru",,,-13.524931,-71.9572337
ChIJ6U8lezSTDZERYygTYfDyQzc,INKAFARMA,0.0,0,"jr. Huancavelica, Acobamba 09380, Peru",,http://www.inkafarma.pe/,-12.860765,-74.5814773
ChIJ6ZZo0FdKQpERSQ_S4-1Zmjo,Botica Max,0.0,0,"Calle Perú 422, Arequipa 04001, Peru",(054) 211923,,-16.4035766,-71.5344751
ChIJ6cf4OW7vTJARLmCVlv1M7Q4,INKAFARMA,0.0,0,"CAL.MARIANO MELGAR 980 LOTE. 1 (MZA. 43, Chiclayo 14011, Peru",,http://www.inkafarma.pe/,-6.764968199999999,-79.8606824
ChIJ6zNAFnkQSpARAxOfLwOBN-k,Boticas y salud,4.0,2,"Av Sánchez Cerro 847, Piura 20001, Peru",,http://www.boticasysalud.com/novedades/estamos-mas-cerca-de-ti-conoce-nuestro-nuevo-loc-5,-5.192000999999999,-80.6289721
ChIJ71PnPnvPWpERk8JOWpIBSUU,Botica La America,4.0,1,"2 De Mayo 790, Tacna 23001, Peru",,,-18.0093963,-70.2483683
ChIJ73Jei9DOBZER0fHw2WvUwjk,InkaFarma,2.6,16,"Av. Perú 1799, Cercado de Lima 15101, Peru",(01) 4261899,http://www.inkafarma.pe/,-12.0324297,-77.0647812
ChIJ74f15jFpXZERl7CZXxPyngo,BOTICAS SAN ANTONIO DE PADUA,0.0,0,"Av. El Sol 1019, Puno 21001, Peru",,,-15.8417051,-70.02131159999999
ChIJ76nu8ZrPBZER070xwobkKjs,INKAFARMA,0.0,0,"Jr. Andahuaylas NRO. 1081, LIMA 15106, Peru",,http://www.inkafarma.pe/,-12.0360518,-77.0846593
ChIJ7XSeHDaRNpAR5Vlp9TJXlIM,MIFARMA MANCORA,4.5,4,"Au. Panamericana Nte. 608, Máncora 20851, Peru",,https://www.mifarma.com.pe/,-4.106859,-81.0533507
ChIJ7cnoTKbRBZERjRf0BLYadOM,BOTICA MAS PERU,0.0,0,"Av. ASOCIACION 13 DE MAYO, Puente Piedra 15121, Peru",,,-11.8882155,-77.0653413
ChIJ7ftzr1VKQpERcXoiXyZz-Po,FARMACIA FASUR,4.2,6,"Av. Goyeneche 203, Arequipa 04001, Peru",(054) 226854,https://www.farmaciafasurperu.com/,-16.4013285,-71.52831119999999
ChIJ7yOa9ZwbSpAR6-wr4wu69-0,Botica Noriega SAC,0.0,0,"Calle José Francisco Maticorena, Piura 20008, Peru",,,-5.183739399999999,-80.6665266
ChIJ87zpb0CbRJERvli5Pm23JGU,INKAFARMA,0.0,0,"Av. Circunvalacion 101, Moquegua 18001, Peru",(01) 4261899,http://www.inkafarma.pe/,-17.2118002,-70.9567996
ChIJ88CdvPhKQpERiyFeQJpA2hY,Inkafarma,0.0,0,"Av. Jorge Chávez NRO. 309, Arequipa 04001, Peru",,http://www.inkafarma.pe/,-16.4046797,-71.5319173
ChIJ8ToShE7VbZERdWQyBAreK5I,INKAFARMA,0.0,0,"Av El Sol NRO. 1102, Cusco 08002, Peru",,http://www.inkafarma.pe/,-13.5249554,-71.9728271
ChIJ8UOJOk6WDpER2XKV_GZFHwk,Mifarma,0.0,0,"Sector 17, Ca. Real 745, Huancayo 12000, Peru",,https://www.mifarma.com.pe/locales/,-12.0706392,-75.2091883
ChIJ8XDZiOnzZ5ERwkjwT7f3I9M,Farmacia San Francisco,5.0,2,"Jr. Huancané, Juliaca 21101, Peru",951 643 802,,-15.4896513,-70.1279187
ChIJ8_iCrKXOBZERP_RPH_budW8,Boticas Perú,4.8,5,"Av. Perú 4289, Av. Quilca 503, San Martín de Porres 15106, Peru",(01) 2067000,http://www.boticasperu.com.pe/,-12.0301582,-77.09439940000001
ChIJ8bHZZ5rLBZERiSQNJf9aCUQ,Boticas Perú,3.2,5,"Av Saenz Peña 702, Callao 07021, Peru",(01) 2067000,http://www.boticasperu.com.pe/,-12.0605407,-77.13828819999999
ChIJ8fG3eX-NM5ARxM8CpBc1oUo,INKAFARMA,0.0,0,"CAL, Hilario Carrasco 247, Tumbes 24001, Peru",,http://www.inkafarma.pe/,-3.5677967,-80.4526144
ChIJ8fcwfU6WDpERo3dFcwKx78E,Farmaben,0.0,0,"Jr. Calixto 166, Huancayo 12000, Peru",(064) 504753,,-12.0687388,-75.2077647
ChIJ8yZ_J_i8o5ERRBGfClOoqf0,Farmacia Farmalino,3.0,5,"Antonio Raimondi, Pucallpa 25000, Peru",,,-8.3916712,-74.5346295
ChIJ8z7567nPWpEReRLAyxh4W8o,Botica Santa Maria,0.0,0,"Tacna 23001, Peru",,,-18.0029849,-70.2431398
ChIJ9-TCcKbJBZERMobsHEIItBI,Boticas Perú,4.8,4,"Jr. Bolognesi 260, Magdalena del Mar 15086, Peru",(01) 2067000,http://www.boticasperu.com.pe,-12.0925183,-77.0700619
ChIJ92fNokaXsJERQ2YZOjcZEvM,INKAFARMA,5.0,3,"JR. COMERCIO NRO. 504, San José de Sisa, Peru",,http://www.inkafarma.pe/,-6.614005,-76.6928451
ChIJ93_PynfPWpERwS61QIh_jpc,"Botica ""BONAFARMA""",5.0,1,"Av. Patricio Melendez 1290, Tacna 23001, Peru",,https://www.facebook.com/profile.php?id=100010470998823&ref=ts&fref=ts,-18.0011949,-70.25565089999999
ChIJ96iB_V2XDpERO2fDRiw-zeI,INKAFARMA,0.0,0,"Jr Ayacucho 200, Tarma 12001, Peru",,http://www.inkafarma.pe/,-12.0649381,-75.2092445
ChIJ9VmTnOvLBZERNCfwqVUpCXA,BOTICA KEROFARMA,0.0,0,"Los Topacios , 294- A San Antonio Bellavista callao, Lima 07016, Peru",988 204 444,,-12.062633,-77.122356
ChIJ9WSxGtEbSpARYP_hOGhOG3U,InkaFarma (Real Plaza Piura),3.0,1,"Real Plaza, Piura 20001, Peru",,,-5.185607699999999,-80.6425836
ChIJ9zfPuejzZ5ERF9NeKXdqEVM,Farmacia Juliaca,3.5,18,"Av. Manuel Nuñez Butrón, Juliaca 21104, Peru",,,-15.4930018,-70.1324111
ChIJA-ytkPG8o5ERvoP7RqAbY5I,Botica Lino,4.7,3,"Antonio Raimondi, Pucallpa 25001, Peru",,,-8.384541200000001,-74.5299501
ChIJAQAA62lKQpERby_GIJbVnO8,Boticas Y Salud,3.0,2,"Real Plaza, Av. Ejercito, Cayma 04014, Peru",(054) 258570,http://www.boticasysalud.com/,-16.3898056,-71.5499545
ChIJAYDCVuLCp5ERUtOEuR5CKdQ,Inkafarma Huánuco,4.0,5,"Jr. 28 de Julio 900, Huánuco 10001, Peru",929 929 952,,-9.9301529,-76.23949329999999
ChIJAYgzOYQaSpARcasCOLRQDxw,Boticas Fasa,3.7,3,"Int. CC Plaza de la Luna, Piura 20001, Peru",,https://www.mifarma.com.pe/,-5.1924636,-80.6399891
ChIJB1U1zbZbspER4NxeS8kVOiU,INKAFARMA,0.0,0,"Francisco Bolognesi NRO. 583, Cajamarca 06003, Peru",(01) 4261899,http://www.inkafarma.pe/,-7.166353099999999,-78.5065072
ChIJBU5AZ5rLBZERyVMGg_o3now,Mi Farma,5.0,1,"Av Saenz Peña 701, Callao 07021, Peru",,http://www.mifarma.com.pe/,-12.0601601,-77.138331
ChIJB_h0OWRtCJERBGMKrLwcErk,INKAFARMA,0.0,0,"Av Circunvalacion Tupac Amaru NRO. 101, Cerro De Pasco 19001, Peru",,http://www.inkafarma.pe/,-10.6858529,-76.25672949999999
ChIJBbsxwnvvTJAR41U-OV9rNRM,Mi Farma,0.0,0,"Elias Aguirre 157, Chiclayo 14001, Peru",(074) 225046,https://www.mifarma.com.pe/locales/,-6.7712251,-79.843871
ChIJBdZK4drIBZER5bbNrFTeJNE,Boticas Perú,4.0,7,"Av. República de Venezuela 907, Breña 15082, Peru",(01) 2067000,http://www.boticasperu.com.pe/,-12.055157,-77.0466738
ChIJBxis_n4QSpARq-Qon9yxKT0,Botica Felicidad,4.4,7,"Cercado Av. Loreto. Esq, Loreto 815, Piura 20008, Peru",(073) 307603,http://www.nortfarma.com.pe/,-5.1962724,-80.63013959999999
ChIJC5VUYoE9rZER6d2Grf7q2rI,Botica 24 Horas,4.0,2,"Jirón Gamarra 731, Trujillo 13001, Peru",(044) 470577,,-8.112377600000002,-79.0247985
ChIJCW0ar1VKQpERFlP6R4CwEJE,Mifarma,0.0,0,"AVENIDA SIGLO XX, 235 CERCADO AREQUIPA, AREQUIPA, Cercado de Lima 04001, Peru",(01) 6125000,http://www.mifarma.com.pe/locales/,-16.4013281,-71.5283765
ChIJC_xuWQp9EpER7v3T7qdaY6w,INKAFARMA,0.0,0,"Av. Ramon Castilla NRO. 108, Ayacucho 05001, Peru",,http://www.inkafarma.pe/,-13.1640243,-74.22326
ChIJCdruLJTjEJERbnYWko4t1-0,INKAFARMA,0.0,0,"INT. 22, PLAZA VEA, Ayabaca NRO. 1180, Ica 11001, Peru",,http://www.inkafarma.pe/,-14.0715446,-75.73725879999999
ChIJD40BDB-NM5AR-q-1Dfmjjmc,INKAFARMA,0.0,0,"A.H. GRAU MZ F LOTE 01, Tumbes 24002, Peru",,http://www.inkafarma.pe/,-3.5564921,-80.4270885
ChIJD4N3ggS9o5ERKVxV81MrNjw,Inka Farma,0.0,0,"Av. Centenario NRO. 1207, Pucallpa 25000, Peru",,http://www.inkafarma.pe/,-8.385603099999999,-74.5523522
ChIJDRTKxxENqZERdQt0WJv4CTo,Farma Recuay,4.0,6,"José De La Mar, Huaraz 02001, Peru",(043) 421391,,-9.527244699999999,-77.5287633
ChIJDUw2t8i9o5ERXh54BOB-bdg,Central Drugstore Botica,0.0,0,"Jr.Ucayali 212, Pucallpa 25001, Peru",945 141 366,,-8.3831739,-74.5351702
ChIJDYd8AfENqZEROPl66WTZ6OA,Q'Farma,0.0,0,"Centenario 808, Huaraz 02002, Peru",,,-9.5167973,-77.5302469
ChIJDbqu4NDJBZERlfNJ0b0JCTo,Boticas Perú,3.3,4,"Av. la Marina 2993, San Miguel 15087, Peru",(01) 2067000,http://www.boticasperu.com.pe/,-12.076357,-77.09619099999999
ChIJDzf15DvVbZERWr4gJjEwMxQ,INKAFARMA,0.0,0,"LA CONVENCION, Alameda Pachacuteq NRO. 457, Cusco 08002, Peru",,http://www.inkafarma.pe/,-13.5288583,-71.9701161
ChIJE0wLyo4bSpARhk7qhr9J6Ac,INKAFARMA,0.0,0,"CAL. LA MAR NRO. 158 INT. 1, Av Sullana Nte, Piura 20001, Peru",,http://www.inkafarma.pe/,-5.182798,-80.6357352
ChIJE3-JlljjEJER32TktRG9cZE,Boticas Perú,1.0,1,"Av. Municipalidad 256, Ica 11001, Peru",(01) 2067000,http://www.boticasperu.com.pe/,-14.063819,-75.730291
ChIJE3vR4s2XDpERKSc2Iq9qGtQ,Mifarma,3.0,1,"Sta Beatriz, Huancayo 12002, Peru",(064) 218517,http://www.mifarma.com.pe/,-12.0492505,-75.19545939999999
ChIJE6fhC8jDp5ERYRZgUnPHVzc,Botica Arcangel Miguel,0.0,0,"Jirón Huallayco 774, Huánuco 10001, Peru",948 823 180,https://botica-arcangel-miguel.negocio.site/?utm_source=gmb&utm_medium=referral,-9.9305907,-76.24374639999999
ChIJERp6OAY7t5ERr_rMF81bFLg,Botica La Inmaculada,0.0,0,"Alcides Carrión, Moyobamba 22001, Peru",,,-6.0423218,-76.97047069999999
ChIJEXaEIxaWDpERJpX2URg_Ebw,MiFarma,3.0,1,"Av. Huancavelica 2007, Huancayo 12006, Peru",,https://www.mifarma.com.pe/locales/,-12.0540357,-75.22505629999999
ChIJE_lV7RoNqZERewTz-cSmZuU,Mundial Farma,5.0,3,"Av. Mariscal Toribio Luzuriaga 986, Huaraz 02001, Peru",(043) 439631,,-9.5321908,-77.5296953
ChIJEaGSusyXDpERmNBsaNlOQ_g,Biosfarmax,0.0,0,"Av Calmell del Solar, Huancayo 12001, Peru",(01) 7480309,,-12.053513,-75.2004132
ChIJEwMoJvN9EpERakFNS74Nqcw,Farmacia Huamanga,3.9,9,"28 deJulio, Ayacucho 05003, Peru",,,-13.1621572,-74.2268283
ChIJF7RSmsPIBZERS0dDDjanS3E,Boticas Perú,5.0,1,"Avenida Alfonso Ugarte 1020, Cercado de Lima 15082, Peru",(01) 2067000,http://www.boticasperu.com.pe/,-12.0527223,-77.0425735
ChIJFSb2aOzPWpER0RImy2AJ4sk,Inkafarma,1.0,1,"Bolivar 894-802, Tacna 23001, Peru",,https://inkafarma.pe/,-18.0112109,-70.2457928
ChIJG6TlxnicRJERCvItN83p_Is,INKAFARMA,1.0,1,"AV. SANTA FORTUNATA MZA. C5 LOTE. 14, Mariscal Nieto, Moquegua 18001, Peru",,http://www.inkafarma.pe/,-17.2079283,-70.9476578
ChIJG8um7fN9EpERtjqrWSnN6mw,MasPharma,3.0,1,"Jirón Bellido 515, Ayacucho 05003, Peru",(066) 310527,http://www.maspharma.com.pe/,-13.1587701,-74.2246454
ChIJGV9UrlVKQpERNOlTIkCAgKw,Farmacia Corporación Fasurperu,0.0,0,"A, Avenida Siglo XX 233, Arequipa 04001, Peru",(054) 221676,http://www.farmaciafasurperu.com/,-16.4012827,-71.5284559
ChIJGWkabwE9rZER2Y_QCJMZMeM,Boticas Perú,0.0,0,"Av. América Nte. 2291, Trujillo 13001, Peru",(01) 2067000,http://www.boticasperu.com.pe/,-8.102455299999999,-79.03258369999999
ChIJGXzojOHCp5ERnyfTPI31MUk,La Curacao,4.3,8,"Calle Huánuco 680, Huánuco 10001, Peru",(01) 2002870,http://www.lacuracao.pe/,-9.930599599999999,-76.2413104
ChIJG_GsVsH7NZARQY8vF4vJqPA,Farmacia Mifarma,2.0,2,"Av Sta Rosa 331, Sullana 20103, Peru",,https://mifarma.es/,-4.896191,-80.6942475
ChIJGdLDeevLBZERkvmyeRouD5s,Boticas y Salud,0.0,0,"Av. Guardia Chalaca 2165, Bellavista 07016, Peru",(01) 4206755,,-12.062484,-77.122871
ChIJH9iuAaf5p5ER38wBMQkDZ6M,INKAFARMA,0.0,0,"MZ. 18, Av. Universitaria NRO. 878, HUANUCO 10450, Peru",,http://www.inkafarma.pe/,-10.29805,-76.3302221
ChIJHUzNF2ycRJERFTsDiAsnsvg,Inkafarma,3.5,4,"Av Balta NRO. 350, Moquegua 18001, Peru",(053) 462996,http://www.inkafarma.pe/,-17.1925716,-70.93600459999999
ChIJHVRRJv29o5EREXFyL_20DSk,BOTICAS EN PUCALLPA: MARIA DEL ROSARIO Tiene todo como en Farmacia,4.0,3,"Jr. 7 de Junio 500, Pucallpa 25000, Peru",949 116 584,https://boticamariadelrosario.es.tl/,-8.3845806,-74.5350323
ChIJHWacUvhaspER7H31fZCb58A,Boticas Y Salud,5.0,2,"Jr. Apurimac 892, Cajamarca 06001, Peru",,,-7.155201,-78.51795969999999
ChIJHZTranvPBZEROq8QZpO3GX8,Boticas Perú,0.0,0,"Av. Marañon 607, Los Olivos 15304, Peru",(01) 2067000,http://www.boticasperu.com.pe/,-11.9720656,-77.07074460000001
ChIJHdRdT-D7tJER3hzJDPhHFqk,Botica Mi Farma,4.0,1,"Av. Mariscal Ramon Castilla 214, Jaén 06801, Peru",,http://www.mifarma.com.pe/,-5.7091064,-78.8081086
ChIJHdxD--68o5ERNcf0guYjytY,Farmacia Inmaculada,5.0,2,"Jr Inmaculada, Pucallpa 25001, Peru",,,-8.3794419,-74.53119699999999
ChIJI6k2WhXPWpERYVeC4sfjfsE,Botica Minca Farmacel,0.0,0,"Tacna 23001, Peru",,,-18.0004932,-70.2497475
ChIJIWzWy-ppXZERRsrzjPU9B6c,Farmacia Del Sur,1.0,1,"Jiron Fermin Arbulu 183, Puno 21001, Peru",,,-15.8377584,-70.0268363
ChIJIXKauxI9rZEROoZ37bprVK8,INKAFARMA,3.3,3,"INT. 01, Av Teodoro Valcárcel NRO. 266, Trujillo 13001, Peru",,http://www.inkafarma.pe/,-8.1015376,-79.0355835
ChIJIXn9Ho8NqZERMxSUIV4MiZA,INKAFARMA,0.0,0,"NRO. 107, Centenario 103, Huaraz 02002, Peru",,http://www.inkafarma.pe/,-9.5229994,-77.5287024
ChIJI_q0T26HEpER6FhJQNpqE-Y,Inkafarma,0.0,0,"Av. Arenales NRO. 850 A, Ayacucho 05002, Peru",3159000,http://www.inkafarma.pe/,-13.1711768,-74.2024237
ChIJIdyweELFWpERnHr1cwuQiiI,Botica Mi Angel,5.0,1,"Av Cnel. Mendoza 1978-1902, Tacna 23001, Peru",,,-17.9990792,-70.2371003
ChIJJ1m5zb3iEJER4MOUntVBh9o,Inkafarma,5.0,1,"Av. Municipalidad NRO. 267, Ica 11001, Peru",936 460 728,http://www.inkafarma.pe/,-14.0639469,-75.7303776
ChIJJ5FPMFdKQpERRXTWnda2VV0,InkaFarma,3.3,15,"CAL, Calle Mercaderes 402, Arequipa 04001, Peru",(054) 201565,http://www.inkafarma.pe/,-16.3997697,-71.53278999999999
ChIJJUbnNCrDp5ER_x_GUQ9aayw,INKAFARMA,0.0,0,"R. DOS DE MAYO NRO. S/N INT. LC05 LOTE. 02, Huánuco 10001, Peru",,http://www.inkafarma.pe/,-9.920764799999999,-76.2410843
ChIJJVk3HpYa6pER5SM5K2J2VCY,inkafarma,5.0,1,"28 De Julio 1060, Iquitos 16004, Peru",988 660 938,,-3.7272986,-73.2518035
ChIJJerFz2VpXZERkVFNmYIpBvk,INKAFARMA,0.0,0,"JR. LOS INCAS NRO. S/N, Puno 21001, Peru",,http://www.inkafarma.pe/,-15.8357795,-70.0220238
ChIJJxZKL1PXbZERzyjngmvhk1U,Inkafarma,0.0,0,"CAL, Ayacucho 175, Cusco 08002, Peru",(01) 4261899,http://www.inkafarma.pe/,-13.5199699,-71.9781876
ChIJJz4sJuLCp5ERAUmyCSiDuBk,INKAFARMA,0.0,0,"JR. CENTENARIO NRO. 330, Huánuco 10001, Peru",,http://www.inkafarma.pe/,-9.928140899999999,-76.2415753
ChIJK1QUW7ziEJERsMW3yuJJHBc,BOTICA VENECIA,0.0,0,"Calle Callao 186, Ica 11002, Peru",(056) 229203,http://indicaperu.com/Empresas.php?IDE=2&IDC=11&IDSC=1&IDSCS=0,-14.0625293,-75.72905
ChIJK63lE52aM5ARiNy535ZmOkk,Botica Felicidad,3.0,3,"Esquina Av. 28 de Julio y Av. Arica, Av 28 de Julio, Zarumilla 24151, Peru",(072) 561416,,-3.5016841,-80.2749479
ChIJKU-ZfNfuTJARWk3rQiaa6Zw,Boticas Perú,0.0,0,"Av Pedro Ruiz 790, Chiclayo 14001, Peru",(01) 2067000,http://www.boticasperu.com.pe/,-6.767962,-79.8405087
ChIJKXk-7R_jEJER6wBASBVRYtk,Boticas Q.F.,0.0,0,"Lima 492, Ica 11000, Peru",,,-14.067447,-75.7276329
ChIJKbyPwP7jEJERAvN-zdQ7OXQ,INKAFARMA,0.0,0,"NRO. S/N SEC. CENTRO MANSILLA SUB LOTE 1, Ica 11001, Peru",,http://www.inkafarma.pe/,-14.0746275,-75.73409529999999
ChIJKc-LyJPLBZERNqiz0SOuUFo,InkaFarma,2.7,3,"Av Saenz Peña 1250, Callao 07001, Peru",(01) 4261899,http://www.inkafarma.pe/,-12.0603611,-77.13177979999999
ChIJKcqawvFaspERQ8K6t-j0th0,Mifarma,3.9,7,"Av Hoyos Rubio, Cajamarca 06001, Peru",976 267 193,http://www.mifarma.com.pe/,-7.149095,-78.5101425
ChIJKfX0_cXuTJARssW7bnoJyVc,Botica Frankc,2.0,1,"Av. Mexico, José Leonardo Ortiz 2201, Peru",,,-6.7550598,-79.84412259999999
ChIJL1uHjIHPWpERLMGEO6NZuBc,BOTICA SANTA LUCIA,2.3,3,"AVENIDA INDUSTRIAL 1318, Industrial 1318, Tacna 23001, Peru",,,-17.9971504,-70.246393
ChIJL788kE8bSpAR1uic0Gu374A,INKAFARMA,0.0,0,"Av. Circunvalación 16, Piura 20007, Peru",(01) 4261899,http://www.inkafarma.pe/,-5.1938976,-80.6514661
ChIJL966EvlaspERtNdbJSqYMU0,Inkafarma,3.3,6,"Jr.Amazonas 688, Cajamarca 06002, Peru",(01) 4261899,http://www.inkafarma.pe/,-7.1564843,-78.5163578
ChIJLQujXubDp5ERt0AygKtE7t0,FarmaTodo,0.0,0,"Jirón Huallayco 1793, Huánuco 10001, Peru",(062) 780884,,-9.920812399999999,-76.237303
ChIJLeQTkgRbspER8BT5k0f-FpY,Farmacia Fuente De Vida,0.0,0,"Av Vía de Evitamiento Nte 463, Cajamarca 06001, Peru",,,-7.1468913,-78.5218321
ChIJLew_IPw6t5ERXlxaGZa2nuQ,INKAFARMA,3.0,1,"JR. SAN CARLOS NRO. 577, Moyobamba 22001, Peru",,http://www.inkafarma.pe/,-6.0419882,-76.97006689999999
ChIJLxAO-YI9rZERnUeFt_cgexY,Farmacia Isis - Bolívar,4.4,12,"Jirón Bolivar, Trujillo 13001, Peru",(044) 204996,,-8.113822599999999,-79.0280815
ChIJLxvH6TA9rZER-RpLQRutWGg,Farma Market,5.0,1,"Los Zafiros 284, Trujillo 13006, Peru",920 755 308,https://www.paginasamarillas.com.pe/empresas/farma-market/trujillo-80633062,-8.1030438,-79.0362683
ChIJLy__mJ0a6pERQO9m4keOPiM,INKA FARMA,4.0,3,"Augusto Freyre NRO. 801, Iquitos 16002, Peru",,http://www.inkafarma.pe/,-3.739786699999999,-73.2446446
ChIJM2jIB83IBZERP0LwxmJ8MeM,Boticas Perú,5.0,2,"Avenida Alfonso Ugarte 301, Cercado de Lima 15001, Peru",(01) 2067000,http://www.boticasperu.com.pe/,-12.044122,-77.04272499999999
ChIJM7c0M4DjEJER8lXGdSlQFx8,CORPORACION LYACOS EIRL (Droguería Lyacos),4.0,2,"Las Turquesas Mz-F, Ica 11000, Peru",990 196 542,https://www.corporacionlyacos.net/,-14.0798997,-75.72713569999999
ChIJMWz_GtQNqZER34647Kgl4AQ,Inkafarma,4.3,4,"Luzuriaga 488, Huaraz 02001, Peru",,http://www.inkafarma.pe/,-9.5261154,-77.5287792
ChIJMcU-GDmWDpERlnlQPVo6fWQ,Farmacia Socorro,3.0,7,"Ca. Real 970, Huancayo 12004, Peru",935 296 919,,-12.0574094,-75.2171563
ChIJMyv-IKjvTJARMSz-8f3EXrM,Inkafarma,0.0,0,"CAL.MIGUEL DE CERVANTES S. 300 INT. PC18, Chiclayo 14009, Peru",,http://www.inkafarma.pe/,-6.7700798,-79.8549907
ChIJMyxYCmwQ6pERrF5x2FtwIRM,Botica Medisel,4.4,5,"Arica 795, Iquitos 16001, Peru",,,-3.755475299999999,-73.248102
ChIJNQdNog0RSpARvxjJwQ9WU6E,Boticas Perú,4.0,1,"Av. Grau 258, Piura 20001, Peru",(01) 2067000,http://www.boticasperu.com.pe/,-5.195955199999999,-80.6280034
ChIJNTNVYHPWbZERg0LiSn9-YPk,Farmacia Millenium,3.5,13,"Sta Catalina Angosta 163, Cusco 08002, Peru",(084) 241784,,-13.5171926,-71.9773355
ChIJNWLQmFc9rZERAzCrv9ocWAk,INKAFARMA,0.0,0,"Av. América Nte. 2312 URB, Trujillo 13001, Peru",(01) 4261899,http://www.inkafarma.pe/,-8.1027188,-79.0329965
ChIJNZ-9sWGHEpER5b-aHOqeB9s,Inkafarma,0.0,0,"Av. Ramon Castilla NRO. 798, Ayacucho 05002, Peru",3159000,http://www.inkafarma.pe/,-13.1660976,-74.2156907
ChIJNavAaMzIBZERhOMSgXjuEy8,Farmacia Universal,4.0,351,"Avenida Emancipación 799, Cercado de Lima 15001, Peru",(01) 4171800,http://www.farmaciauniversal.com/,-12.0449231,-77.0403386
ChIJNbghbXobSpARoBaZz5cY59I,INKAFARMA,0.0,0,"CAL.SAN MARTIN 112 - NRO. 114, Calle Huancabamba, Piura 20007, Peru",,http://www.inkafarma.pe/,-5.1854567,-80.6619453
ChIJO369KwC9o5ER5exizhXDsMY,Inkafarma,3.5,2,"30 De Agosto 296, Pucallpa 25000, Peru",,https://inkafarma.pe/,-8.391526800000001,-74.5466026
ChIJO3U2PrrOBZERBAqap1pQ9WY,Inkafarma,4.2,12,"Av. Perú Nº 3606, LIMA 15106, Peru",(01) 4261899,http://www.inkafarma.pe/,-12.0306009,-77.0863773
ChIJOWFJN2oQ6pERZ9d8rIIZHSw,BOTICA MARIDIOSE,0.0,0,"Ramirez Hurtado 1075, Iquitos 16001, Peru",(065) 222769,,-3.7586069,-73.2481787
ChIJObF-JQrWbZER7RZ0rTy6WoY,FARMACIA DR. AHORRO,0.0,0,"Av. de La Cultura, Cusco 08003, Peru",,,-13.5203096,-71.97034649999999
ChIJOxJ-CHg9rZER0aWhl3Yh3I4,Boticas Felicidad,4.0,3,"Jirón Bolivar 108, Trujillo 13001, Peru",(044) 227753,,-8.116165,-79.02986779999999
ChIJP50WXnbWbZER_3PX5SX9CvI,Inkafarma,4.5,2,"Cusco 08002, Peru",,,-13.5208182,-71.9831769
ChIJP5oDgK5LQpER_s-Bj0FnIYQ,Naturals farmacia especializada,0.0,0,"Calle San José 105a, Arequipa 04001, Peru",966 668 855,,-16.3978874,-71.53444379999999
ChIJP8MBzMbIBZERkou__FgWcF8,Boticas Arcángel,4.0,4,"Av. Garcilaso de la Vega 1337 Real Plaza Tienda 1085 1er. Piso, Cercado de Lima 15001, Peru",(01) 3192121,https://www.mifarma.com.pe/,-12.0574935,-77.0373791
ChIJP90KSLlbRJERg345O_5dHk4,INKAFARMA,0.0,0,"MZA. 4 LOTE. 14 A.H. PROG MUNI VIV IV, Ilo 18601, Peru",,http://www.inkafarma.pe/,-17.6311655,-71.3370663
ChIJP9GDnudbspERZixOG4sL0ko,"BOTICAS LULE, SALUD Y ECONOMIA",0.0,0,"Avenida Mario Urteaga 149, Cajamarca 06002, Peru",920 673 499,,-7.1581508,-78.5111218
ChIJPSpIlX4KDpERBgoDX8FPVws,Botica Inkafarma,5.0,1,"Av. Celestino Manchego Muñoz NRO. 198, Huancavelica 09001, Peru",,http://www.inkafarma.pe/,-12.7874464,-74.9725572
ChIJPVNe-FGaM5ARCYjb13fPDq0,Farmacias Cruz Azul,4.7,6,"Huaquillas, Ecuador",,http://www.farmaciascruzazul.com/,-3.4798237,-80.2381458
ChIJPXpRJ98CbZERkCCaOGgV13Y,BOTICA TUFARMA,4.0,1,"Ave Diaz Barcenas 529, Abancay 03001, Peru",983 626 226,,-13.6354616,-72.8800038
ChIJPYN6cfsb6pERh65mAvuhoKs,FARMATODO,5.0,2,"Av. La Marina 2014, Iquitos 16003, Peru",965 616 740,,-3.7185798,-73.2433702
ChIJP_JB-1x_bpEROi-NJeT0Gbs,Botica Isabel,0.0,0,"Cusco 08006, Peru",,,-13.5393464,-71.9424449
ChIJPxhlPZyrtpEReX5-NT17w-s,AGENTE BBVA CONTINENTAL - BOTICA SALUD & VIDA,4.0,3,"JR, Triunfo 457, Chachapoyas 01001, Peru",974 917 239,https://agente-bbva-continental-botica-salud-vida.negocio.site/?utm_source=gmb&utm_medium=referral,-6.230506099999999,-77.8670812
ChIJPyQreU9tCJERVyd7yhaBctY,Mifarma,0.0,0,"Jiron San Cristobal 279, Cerro De Pasco 19001, Peru",,https://www.mifarma.es/,-10.6842901,-76.2564076
ChIJQ9cqSfhaspERcveHCnsAwiI,Inkafarma,0.0,0,"Jr.Amazonas 408, Cajamarca 06001, Peru",(01) 4261899,http://www.inkafarma.pe/,-7.154884999999999,-78.5183468
ChIJQU5Mb_nLBZERedKHU4fCtUs,InkaFarma,5.0,3,"Av Argentina NRO. 3093, Callao 07001, Peru",(01) 4298356,http://www.inkafarma.pe/,-12.0484068,-77.1112563
ChIJQVdbMpc9rZER0ROZtQqZ76k,Farmacia Isis,3.3,6,"Los Zafiros 162, Trujillo 13011, Peru",(044) 345284,,-8.103601099999999,-79.0364445
ChIJR-hN-4AbSpARIohWLd7tqzE,INKAFARMA,0.0,0,"JR. FRIAS NRO. 796 LOTE. 01 (MZ-14, Piura 20009, Peru",,http://www.inkafarma.pe/,-5.1782884,-80.6548882
ChIJR9H39vJ9EpERm9o9pvJUHVQ,Botica Romero,1.5,2,"Miguel Grau 111, Ayacucho 05003, Peru",,,-13.1607595,-74.2277093
ChIJRQ5xG5DiEJERs7yUoEQ3mCE,Mi Farma,0.0,0,"Av San Martin 1439, Ica 11001, Peru",985 462 589,,-14.0770721,-75.72635249999999
ChIJRWO8CurIBZER-AoQfuCK4UA,MiFarma,3.0,2,"Av. Inca Garcilaso de la Vega 1900, Cercado de Lima 15046, Peru",(01) 6125000,http://www.mifarma.com.pe/locales/,-12.0635041,-77.0378363
ChIJRY3Em50a6pERxHSY8Wpnt9Y,Botica 24 Horas II S.A.C,4.0,1,"PUCALLPA CON AREQUIPA, Pucallpa, Iquitos 16002, Peru",,,-3.7400366,-73.24458899999999
ChIJR_-PyloDbZERUTZqc22L_HM,BOTICA ABC,0.0,0,"Av. Panamericana 207, Abancay 03001, Peru",(083) 780607,,-13.6343658,-72.88461
ChIJRxtXaOfFWpER38tRFgnzUQ0,Botica Universal,0.0,0,"Pista Auxiliar, Tacna 23003, Peru",,,-18.0036962,-70.232593
ChIJRzWm6lTDp5ERAXj2d0R_Fxg,INKAFARMA,0.0,0,"JR. INDEPENDENCIA NRO. S/N, Huánuco 10001, Peru",,http://www.inkafarma.pe/,-9.9269907,-76.2454018
ChIJRzbVBVKWDpERTqAFkUqYT-8,Mifarma,0.0,0,"Jr. Cajamarca 262, Huancayo 12000, Peru",,https://www.mifarma.com.pe/locales/,-12.0716995,-75.2065155
ChIJS0RvCpIaSpAR6XgUqvUWEjM,InkaFarma (Piura 9),3.0,9,"Av. Grau 2197, Piura 20007, Peru",(073) 603121,,-5.188528799999999,-80.6505122
ChIJS2N7EHidRJERscRnNNN98cI,INKAFARMA,0.0,0,"Ilo 332, Moquegua 18001, Peru",(01) 4261899,http://www.inkafarma.pe/,-17.1967881,-70.9348468
ChIJS6IhIutpXZERqky05V7_Y9o,Arcangel,5.0,1,"Lima, Puno 21001, Peru",,,-15.838169,-70.0282395
ChIJSfr-vpbiEJERlMzDd8thOjs,JAMPAR MULTIPLEST INTERNACIONAL S.R.L. SUCURSAL ICA,1.0,1,"D-108 Residencial, Cardos, Ica 11001, Peru",(056) 321305,http://www.jampar.com.pe/,-14.0708115,-75.7300114
ChIJT62Rr4M9rZER2Qo7dIuUvMg,Botica La Libertad,4.4,23,"Jirón Bolivar 467, Trujillo 13001, Peru",(044) 244391,,-8.112696999999999,-79.0269491
ChIJTSJYCZHPBZERKSc1__o_-_c,Boticas Perú,0.0,0,"Av. Samuel Alcazar 852, Rímac 15094, Peru",(01) 2067000,http://www.boticasperu.com.pe/,-12.0266894,-77.0334025
ChIJTUjnH_w6t5EREwbUeg_YPYs,Botica Alicia,0.0,0,"Av Grau, Moyobamba 22001, Peru",938 143 825,https://www.facebook.com/Botica-alicia-109338710883296,-6.0407718,-76.9700915
ChIJTUrBh14pbZERc1YRk2ENX2o,INKAFARMA,0.0,0,"Jr. Alfonso Ugarte NRO. 395, Andahuaylas 03701, Peru",,http://www.inkafarma.pe/,-13.651173,-73.3635676
ChIJTdiavNTjEJER-QPAmxj8L9s,Farmacia Perfumeria LC,5.0,1,"Balneario de huacachina N°180, Huacachina 11000, Peru",981 493 632,,-14.0868447,-75.7636053
ChIJUUFyzNUNqZEROUXSIzI4ICY,Mifarma,4.0,1,"Av. Mariscal Toribio de Luzuriaga 591, Huaraz 02001, Peru",929 498 334,https://www.mifarma.com.pe/,-9.527889499999999,-77.52887369999999
ChIJUdljxhHJBZER1Dymv1byVaA,Farma Red Perú,5.0,1,"Calle Ciro Alegria 245, Pueblo Libre 15084, Peru",(01) 4610830,,-12.0750794,-77.07174309999999
ChIJUfc2d8jOBZERBiLhrxCim0k,Botica Peru Farma,4.0,2,"Av. Perú 294, Cercado de Lima 15101, Peru",,,-12.032139,-77.0774136
ChIJUwzgmoIaSpARmZhx2VbAeLg,Farmacia Leal,3.0,4,"Av. Sanchez Cerro (lateral), Piura 20001, Peru",,,-5.190125999999999,-80.6332165
ChIJV6LQH6rDp5ERb2Ynt45I1Nc,GMO Peru,0.0,0,"OPEN PLAZA, Open Plaza, Jirón 2 de Mayo, Huánuco 10003, Peru",(0800) 14600,http://gmo.com.pe/,-9.93872,-76.24772999999999
ChIJVQJWtWsQ6pER3x47PPu_bEs,Botica Melendez,5.0,1,"Jirón Próspero 1035, Iquitos 16006, Peru",965 620 644,,-3.7580455,-73.24852369999999
ChIJVWgMcE9tCJERuEKoVC4FTEg,Inkafarma,0.0,0,"Calle Leoncio Prado, Cerro De Pasco 19001, Peru",,,-10.6838447,-76.2560445
ChIJVYBQKwM7t5ERs6asSctPot4,Inkafarma,0.0,0,"Jr. Callao NRO. 847, Moyobamba 22001, Peru",,http://www.inkafarma.pe/,-6.033775599999999,-76.9768684
ChIJVcZarkNKQpERY2GvtR9dGps,Fasur Perú,0.0,0,"Ejército 606-A, Yanahuara 04013, Peru",(054) 254980,,-16.3903945,-71.54518519999999
ChIJVdxHjyz9EJERk-mXqqLIQOA,INKA'S FARMA,0.0,0,"Av Miami Beach, 11004, Peru",,,-14.042716,-75.753795
ChIJVwIMmi5LQpERrtVsTGbQ4e4,INKAFARMA,0.0,0,"CAL.COMANDANTE SUAREZ 310, Arequipa 04001, Peru",,http://www.inkafarma.pe/,-16.4090474,-71.53745099999999
ChIJW185VPd9EpER-vesHId4zKM,botica dr peru,0.0,0,"Ayacucho 05001, Peru",914 541 121,,-13.1521648,-74.2235041
ChIJW3oNpId9EpERbQi5DptJPZM,Mi farma,0.0,0,"Portal Constitucion 3, Ayacucho 05003, Peru",,https://www.mifarma.com.pe/locales/,-13.1606184,-74.2263704
ChIJW4cZlrHIBZERyQxAy9pJiAc,Boticas Perú,5.0,1,"Jr. Andahuaylas 309, Cercado de Lima 15001, Peru",(01) 2067000,http://www.boticasperu.com.pe/,-12.047375,-77.023769
ChIJW5LC1_0dEZERP_u2bXnbduI,Farmacia Vitalica,4.5,2,"Calle Luis Camino Dibos Mz. G lote 2- Chulpaca, Pueblo Nuevo 11200, Peru",959 925 144,http://farmaciavitalica.blogspot.pe/,-14.130844,-75.7080192
ChIJWUq3nAQ7t5ERzlrgcAhNn48,Inkafarma,5.0,2,"Jiron Alonso de Alvarado, Moyobamba 22001, Peru",,https://inkafarma.pe/,-6.0315471,-76.9736704
ChIJWWvpIlYNupER93Wmf74Cr_A,Mifarma,3.0,2,"Av. Lima 376, Tarapoto 22202, Peru",,https://www.mifarma.com.pe/,-6.4871004,-76.36353679999999
ChIJWYNq33IQ6pERlr0LwB2HiIY,INKAFARMA,0.0,0,"CAL, Ramón Castilla NRO. 381, Iquitos 16001, Peru",,http://www.inkafarma.pe/,-3.7485127,-73.2517172
ChIJX-X_g0JKQpERJOIvmbTAzgg,Fasur,0.0,0,"Mz D 4, Cayma 04014, Peru",,http://www.farmaciafasurperu.com/,-16.391602,-71.5482885
ChIJX7MiBjbPBZER2wfodzlA0vQ,Mifarma,0.0,0,"Calle San Germán 271, Rímac 15093, Peru",(01) 6125000,http://www.mifarma.com.pe/,-12.0350493,-77.0340925
ChIJXVAi4awbSpARK4tmG-nzfAY,InkaFarma (Piura 18),0.0,0,"Av. César Vallejo 100-112, Piura 20007, Peru",,,-5.1892813,-80.64889649999999
ChIJXX6oSlI9rZEREc_u0K3Bgmo,Boticas Perú,4.0,4,"Jirón Francisco Pizarro 524, Trujillo 13001, Peru",(01) 2067000,http://www.boticasperu.com.pe/,-8.111491,-79.02743699999999
ChIJXXkzzNoNqZERKC_VWmZEsLU,Botica 24 Horas,0.0,0,"Av. Mariscal Toribio Luzuriaga 1234-1264, Huaraz 02001, Peru",,,-9.5350196,-77.53007269999999
ChIJXfaIMiXvTJARKA8biNjCN24,MiFarma,3.6,8,"Av. Sta. Victoria 496, Chiclayo 14008, Peru",(074) 205419,http://www.mifarma.com.pe/,-6.7815769,-79.8429354
ChIJXwMr5C2HEpERAabcsvgjrPU,Farmamilagro,0.0,0,"Av. Salvador Cavero 176, Ayacucho 05001, Peru",,https://www.facebook.com/Boticas-Farmamilagro-103055084402655/,-13.1582783,-74.2177583
ChIJYaYtxyDPWpERtbBUa13-MjE,INKAFARMA,0.0,0,"MZA. B LOTE. 14 P.J, Av. Augusto B Leguia, Tacna 23001, Peru",,http://www.inkafarma.pe/,-18.0063563,-70.2466957
ChIJYcLLrqXOBZERPcfQyGVzaJw,InkaFarma,3.0,8,"DPTO. 201, URB. PERU, Av. Perú NRO. 4209, LIMA 15106, Peru",(01) 3142020,http://www.inkafarma.pe/,-12.030187,-77.0942369
ChIJYw3JFvC8o5ER10x1B7at0fo,Mifarma,3.3,4,"Jr. Independencia, Pucallpa 25001, Peru",,https://www.mifarma.es/,-8.3837172,-74.5334826
ChIJZ05FmgJbspER5V4UFPAEn88,Botica Felicidad,3.0,7,"Av Independencia Nº 198, Cajamarca 06001, Peru",,https://www.nortfarma.com.pe/,-7.1642041,-78.5112256
ChIJZ4VpyfhaspER0jt_u2-8J5I,Farmacia Ruiz,5.0,2,"Junín 1112, Cajamarca 06002, Peru",(076) 288560,,-7.1580704,-78.5189719
ChIJZRvOUbTIBZERkKtK9-3IgSs,Inkafarma,3.7,9,"Jirón de la Unión 200, Cercado de Lima 15001, Peru",(01) 3142020,http://www.inkafarma.pe/,-12.044162,-77.030025
ChIJZSS2MSnvTJARV9tlayYQQC4,Boticas Perú,3.3,3,"Av. Francisco Bolognesi 798, Chiclayo 14001, Peru",(01) 2067000,http://www.boticasperu.com.pe/,-6.7759041,-79.8373557
ChIJZTD39PlbspERG2YrVXne034,Farma Hogar,0.0,0,"Av Hoyos Rubio 412, Cajamarca 06002, Peru",,,-7.1516127,-78.5116762
ChIJZf2LnerdtpERqQbQJUWgNhU,"BOTICA ""INKAFARMA""",4.0,2,"Avenida Cajamarca Sur 396, RIOJA 22846, Peru",(01) 4261899,http://www.inkafarma.pe/,-5.9413466,-77.307368
ChIJZf2ZtuZKQpERNn0cZhReBC4,PeruFarma,0.0,0,"Av. Daniel Alcides Carrión 247, Arequipa 04002, Peru",959 783 255,,-16.4219888,-71.5312508
ChIJ_3gS1VOWDpERWklA9hLbsPU,Mifarma,0.0,0,"Ca. Real 1201, Huancayo 12001, Peru",,,-12.0742801,-75.20695979999999
ChIJ_4ojXU6WDpERktfC3Khj5C0,Inkafarma,0.0,0,"JR. ANCASH NRO. 583 (587) JUNIN, Huancayo 12001, Peru",964 823 666,http://www.inkafarma.pe/,-12.0692949,-75.20866699999999
ChIJ_UzSnxw7t5ERNNs3awVfHqQ,INKAFARMA,5.0,1,"JR, Emilio Acosta NRO. 323, Moyobamba 22001, Peru",,http://www.inkafarma.pe/,-6.0310007,-76.97703849999999
ChIJa2xu7MUrbZERL3DteiknoRY,Inkafarma,5.0,1,"Av. Andahuaylas NRO. 409, Andahuaylas 03701, Peru",,http://www.inkafarma.pe/,-13.6557643,-73.3873299
ChIJaQ7TXpVpXZERyF1Vnm07lg8,INKAFARMA,0.0,0,"JR, Jiron Fermin Arbulu 117, Puno 21001, Peru",,http://www.inkafarma.pe/,-15.837745,-70.0262588
ChIJaV9ZhCfJBZERPpdZpc-mpZU,Botica Misalud Peru,5.0,1,"Av. República de Venezuela 1776-A, Breña 15082, Peru",,,-12.055499,-77.05696379999999
ChIJaWSzbz1LQpERCzN-FgmOUeE,Farmacia Fasur Perú,5.0,1,"Av. Cayma 624, Cercado De Arequipa 04018, Peru",,http://www.farmaciafasurperu.com/,-16.3880272,-71.547237
ChIJb0Fpn_G8o5ERz9HHsVYF5Q4,Farmacia Perú,3.0,1,"Pucallpa 25001, Peru",,,-8.385111799999999,-74.5301472
ChIJb2iFSNTyM5ARc_D-YdtMuK8,Boticas Felividad 16,3.0,1,"Calle Piura, Tumbes 24001, Peru",,,-3.568724,-80.4588625
ChIJb3I6CvG8o5ERE6k2O8pJdo8,Botica Mifarma,0.0,0,"Jr. Raymondi 517, Pucallpa 25001, Peru",,,-8.385429,-74.53044659999999
ChIJb5PpV2DvTJARp7qWd8wbpRw,INKAFARMA,0.0,0,"Calle Tupac Amaru N° 299, LAMBAYEQUE 14009, Peru",,http://www.inkafarma.pe/,-6.765901299999999,-79.8468614
ChIJb6O9W8XJBZERiMC6WaU2On0,Sede Administrativa Farmacias Peruanas SAC,0.0,0,"Victor Alzamora 136, Cercado de Lima 15034, Peru",,,-12.0832135,-77.0125307
ChIJbYXHor_Cp5ER37zvojhIGsI,Cadena Peruana Mifar,0.0,0,"Av Universitaria 800, Pillco Marca 10003, Peru",(062) 511751,,-9.951598599999999,-76.25013849999999
ChIJbeG5rqnJBZERaUNYEsiLs3w,Inkafarma,4.3,4,"MZA Q-8 LOTE 4 A.H. JOSe CARLOS MARIaTEGUI Lima, Cercado de Lima 15082, Peru",(01) 3142020,http://www.inkafarma.pe/,-12.0463731,-77.042754
ChIJbfRLT9w9rZERIKZNQWABaKU,INKAFARMA,0.0,0,"CAL.26 DE MARZO 1301, Trujillo 13001, Peru",,http://www.inkafarma.pe/,-8.1062979,-79.03245799999999
ChIJbxpSEylpXZERBich3pHsIZg,INKAFARMA,0.0,0,"SAN MARTiN S, San Roman 109, Puno 21002, Peru",,http://www.inkafarma.pe/,-15.8450732,-70.0208822
ChIJc77ByNLyM5ARVxkgDsq2CMc,Farmacia MIFARMA,3.0,1,"Tumbes 24001, Peru",979 249 840,https://mifarma.es/,-3.5632723,-80.455495
ChIJcQgBp-_zZ5ERDxJKijqEPFo,Farmacia MedicaFarma Juliaca,1.5,2,"Jirón Bracesco 422 Costado de la iglesia, Plaza Bolognesi, Juliaca 21100, Peru",(051) 302834,https://farmaciasmedicafarma.business.site/,-15.4966289,-70.1314848
ChIJcRIE4RkR6pER4wojo8jcRx4,Botica San Gabriel EIRL,0.0,0,"Pasaje Paquito 30, Iquitos 16006, Peru",(065) 268703,,-3.759385299999999,-73.2484954
ChIJcYhHZhEQ6pERnXWiucLBY_A,Inka Farma,4.0,2,"Av. del Ejército 1283, Iquitos 16001, Peru",(01) 4261899,http://www.inkafarma.pe/,-3.7543951,-73.2592385
ChIJcdBcsKYa6pERD5cC95dgDcI,Botica 24 Horas II S.A.C,3.3,4,"PUTUMAYO 101, Iquitos 16004, Peru",,,-3.7370282,-73.25953110000002
ChIJce9V-JI_NZARs5GiVi2zMd4,Botica Mi Farma,0.0,0,"Calle Tacna 13, Ayabaca 20541, Peru",,http://www.mifarma.com.pe/,-4.6398737,-79.7149032
ChIJcezEpa7VbZERNNQwAP_PGlY,INKAFARMA,0.0,0,"JR. LA UNION MZA. G2 LOTE. 08-B, Cusco 08007, Peru",,http://www.inkafarma.pe/,-13.535965,-71.95800969999999
ChIJd0__jcbIBZERUh8mA4WbeFw,Boticas Perú,0.0,0,"Av. Garcilaso de la Vega 1297, Cercado de Lima 15004, Peru",(01) 2067000,http://www.boticasperu.com.pe/,-12.055746,-77.03803979999999
ChIJdbPmGXlBqZER_b4MPYk9c7Y,Recuay Farma,3.5,2,"La Merced 736, Carhuaz 02127, Peru",,,-9.2811262,-77.6461664
ChIJdwQFr40R6pER1LDCYAbTdqM,INKAFARMA,0.0,0,"JR. SAN MARTIN NRO. 446 LORETO, Iquitos 16002, Peru",,http://www.inkafarma.pe/,-3.7452243,-73.24412269999999
ChIJdyDOSlrOBZERa1iWkL0MvqE,Boticas Perú,3.4,5,"Av. Carlos Izaguirre 850, Los Olivos 15301, Peru",(01) 2602400,,-11.9908161,-77.0710787
ChIJe-rJ4HMQ6pERBKY2kIp1xHQ,Inkafarma,0.0,0,"JR. MOORE NRO. 178 (A.H. SERAFIN FILOMENO I ETAPA) LORETO, Iquitos 16002, Peru",990 338 690,http://www.inkafarma.pe/,-3.746981,-73.2473885
ChIJe0z9owsbSpARtOo0PeCPNAc,Boticas Perú,5.0,1,"Jr, San Lorenzo S/N, Piura 20001, Peru",(01) 2067000,http://www.boticasperu.com.pe/,-5.189178099999999,-80.6341072
ChIJe7x8iII9rZERShvIzCJQDpY,Mi Farma,3.5,4,"Jirón Bolognesi 688, Trujillo 13001, Peru",,http://www.mifarma.com.pe/,-8.1153075,-79.0279573
ChIJf-PoQc5pXZERU4iVipfD8hM,INKAFARMA,0.0,0,"JR. LOYOLA 138, Puno 21001, Peru",,http://www.inkafarma.pe/,-15.8398502,-70.02162299999999
ChIJf3irspE9rZERQl0DOBm5DJ8,farmacia funegra,3.8,6,"Av. América Nte. 2281, Trujillo 13001, Peru",(044) 207233,,-8.1026536,-79.0325848
ChIJf57Pp73iEJERC7331sizdNg,Boticas Y Salud,3.7,3,"Lima 185, Ica 11001, Peru",(056) 223663,,-14.064198,-75.7284753
ChIJfQ7ByPlaspEREBLIc2ZYD-o,Boticas Diana,1.0,1,"Jr. José Sabogal 299, Cajamarca 06001, Peru",,,-7.1541865,-78.5172034
ChIJfQy1Ewy9o5ER0b7y9t1b6QE,Botica Dermolab,3.7,3,"Av. Aviacion, Pucallpa 25000, Peru",,,-8.3885419,-74.5648423
ChIJfVEcqkHPWpERwCsklRx6DTU,Botica Micaefarma,0.0,0,"Gral. Varela 505, Tacna 23001, Peru",,,-18.0049245,-70.2473205
ChIJfWeoiV6XDpERTt9G9hrNkZ0,Mifarma,0.0,0,"Pj Andalucita 106, Huancayo 12000, Peru",,https://www.mifarma.com.pe/locales/,-12.0709962,-75.2043084
ChIJf_-JspZpXZERhLILo6rU0Ps,Botica Santisima Cruz II,3.0,1,"Jirón RICARDO PALMA 191, Puno 21001, Peru",,,-15.8410084,-70.0197263
ChIJfwAYA_N9EpER8oCb0NLOviQ,Farmacia Del Pino,4.3,8,"28 de Julio 123, Ayacucho 05003, Peru",(066) 312080,,-13.1611136,-74.2265139
ChIJfzi-WIM9rZER7K-verd6tPU,Inkafarma,0.0,0,"Av Mansiche NRO. 852, Trujillo 13011, Peru",,http://www.inkafarma.pe/,-8.1035849,-79.0374011
ChIJg_n1uCiXDpERnEp096VGwzY,Yakufarma,5.0,1,"Mariscal Castilla (Real) 1995, Huancayo 12001, Peru",(064) 248192,,-12.0499358,-75.2221062
ChIJgahY5-RKQpERKvceUQPvrUE,Mifarma,3.0,4,"Av. Daniel Alcides Carrión 502, Cercado De Arequipa 04001, Peru",(054) 202044,http://www.mifarma.com.pe/,-16.4167642,-71.5333808
ChIJgbd2weppXZER0jnIxRBZKbo,Rp Pharma,4.0,1,"Jiron Fermin Arbulu 261, Puno 21001, Peru",,,-15.8380412,-70.0277775
ChIJgboq3GPIBZERYoRpHLfWTAQ,Boticas Perú,4.5,4,"Av. Rivera Navarrete 2673, Lince 15046, Peru",(01) 2067000,http://www.boticasperu.com.pe/,-12.089434,-77.027132
ChIJgc35CfdKQpERc0yIJ0WneAk,INKAFARMA,4.7,3,"CAL, C. San Juan de Dios NRO. 658, Arequipa 04001, Peru",(01) 4261899,http://www.inkafarma.pe/,-16.407474,-71.5385213
ChIJgefaU9fDp5EROaNDjQXTpTU,Botica Oriente Dental,5.0,1,"Jirón Crespo Castillo 561, Huánuco 10001, Peru",951 362 555,,-9.9275517,-76.2395962
ChIJgwAb51DzM5ARgAJNMyMxUVM,INKAFARMA,0.0,0,"Mariscal Castilla 387, Tumbes 24001, Peru",(01) 4261899,http://www.inkafarma.pe/,-3.5713424,-80.45660389999999
ChIJgyjpPXwKDpER7FFa0JNMcH4,Inkafarma,5.0,1,"Jr. Virrey Toledo NRO. 346, Huancavelica 09001, Peru",,http://www.inkafarma.pe/,-12.7874184,-74.9745183
ChIJhVvztBu9o5ERpSJY0ll-A7k,Inkafarma,3.5,2,"CAL. UNION NRO. 1301, Pucallpa 25000, Peru",937 375 718,http://www.inkafarma.pe/,-8.380000299999999,-74.554956
ChIJhYLXOvzRBZERypv3gnFJTiU,BOTICAS MI PERÚ,0.0,0,"5TO SECT, Av. Próceres 7792, Los Olivos 15307, Peru",,,-11.9381163,-77.0750087
ChIJhcGNjnzXbZEReL0rMH1A95c,MiFarma,0.0,0,"Mantas 132, Cusco 08002, Peru",,http://mifarma.com.pe/,-13.5177214,-71.9791034
ChIJiQO69NcCbZERFwPv9L5XirM,Inkafarma,3.0,1,"Av. Venezuela 515, Abancay 03001, Peru",3159000,,-13.6345652,-72.8872944
ChIJiRpTs4qNM5ARwziOtjTGc6Y,INKAFARMA,0.0,0,"Av. Tumbes, Tumbes 24002, Peru",,http://www.inkafarma.pe/,-3.5603989,-80.45358329999999
ChIJiaJP93sQSpAR3M1nsniMsqE,Mifarma,3.8,5,"1B, Piura 20001, Peru",955 215 862,https://www.mifarma.com.pe/,-5.193010900000001,-80.626401
ChIJieJEUl7OBZERPNdS3CcW2Ug,Boticas Perú,4.5,2,"Av. Antunez de Mayolo 1173, Lima 15302, Peru",(01) 2067000,http://www.boticasperu.com.pe/,-11.995152,-77.0771887
ChIJj0D7ZGcrbZER1KC2QNRvqwA,Farmacias Perú,0.0,0,"Jr. David S. Ocampo 306, Andahuaylas 03701, Peru",,,-13.6564774,-73.3865771
ChIJj2GytNXPBZER0pCrDDh0kHg,Boticas Perú,5.0,2,"Av. Túpac Amaru 1125, Comas 15311, Peru",(01) 2067000,http://www.boticasperu.com.pe/,-11.9551134,-77.0524664
ChIJj3SppVDvTJARMQzZHe_hEOU,Boticas y Salud,0.0,0,"Av Balta 360, Chiclayo 14001, Peru",,,-6.7745123,-79.8386275
ChIJj46A-pNpXZERdXkhcuR9nPw,Inkafarma,3.0,1,"Av. El Sol NRO. 1011, Puno 21001, Peru",,http://www.inkafarma.pe/,-15.8416459,-70.021286
ChIJjYYGYMjIBZERzu930V1nZbo,Boticas Perú,4.4,5,"Av. Nicolás de Piérola 798, Cercado de Lima 15001, Peru",(01) 2067000,http://www.boticasperu.com.pe/,-12.0507765,-77.03621059999999
ChIJjbkNqk-WDpERx9W0SVOBsps,INKAFARMA,0.0,0,"AV. MARISCAL CASTILLA NRO. 4329 (MZA. 36 LOTE 9 SECTOR C, Huancayo 12001, Peru",(064) 218517,http://www.inkafarma.pe/,-12.0686357,-75.21029759999999
ChIJjcQ9IcjXbZERdU43OOU_WfM,Boticas Perú,5.0,1,"Av. Garcilaso 200, Cusco 08002, Peru",(01) 2067000,http://www.boticasperu.com.pe/,-13.522444,-71.973013
ChIJjfdkKgYMupERU2gO4jOI_QI,Mifarma,4.6,8,"Jirón Martínez de Compañón 119, Tarapoto 22202, Peru",,http://www.mifarma.com.pe/,-6.487883099999999,-76.36064309999999
ChIJjw2fUCnvTJARDQBXl6qttBk,Inkafarma,4.3,8,"Av Sáenz Peña 299, Chiclayo 14001, Peru",(01) 4261899,http://www.inkafarma.pe/,-6.7757102,-79.83574829999999
ChIJk6Gdc0jVbZERKf_YA_ZK9q0,DROGUERIA BYL,0.0,0,"Av del Ejército 769, Cusco 08000, Peru",952 676 600,,-13.5236805,-71.9813551
ChIJkRqDClKWDpER3hUmTaofRTM,Inkafarma,0.0,0,"Jr, Jr. Cajamarca Nº 180, Huancayo 12001, Peru",,http://www.inkafarma.pe/,-12.0713728,-75.20565409999999
ChIJl0u96HNLQpEREkWyTnfgwDc,INKAFARMA,0.0,0,"Arica 212, Arequipa 04001, Peru",(01) 4261899,http://www.inkafarma.pe/,-16.409752,-71.5415541
ChIJlQDnAYOjNpAR-o-48pxgREw,FARMACIA LA SOLUCIÓN S.A.C,5.0,2,"Au. Panamericana Nte. 728, 24560, Peru",948 687 890,,-3.9460537,-80.9400947
ChIJlSj521MdEZER1DC6vBd-pNA,Botica Similares,0.0,0,"Av. Pachacútec Yupanqui 820, Ica 11003, Peru",(056) 406600,,-14.0475429,-75.7061903
ChIJlUS2EMdLQpERwj_PnrTCwp4,Mifarma,0.0,0,"5, Elías Aguirre 304, Miraflores 15074, Peru",,https://www.mifarma.com.pe/,-16.4014333,-71.5166478
ChIJm47RWYA7t5EREWyYJJFSLyU,BOTICA MEDIKFARMA,4.0,1,"Jirón Coronel Secada, Moyobamba 22001, Peru",,,-6.037407399999999,-76.96956390000001
ChIJmQS134M9rZERqZZk5GbvcAU,MiFarma,3.2,5,"Jirón Gamarra 691, Trujillo 13001, Peru",(044) 470577,http://www.mifarma.com.pe/,-8.11199,-79.02511950000002
ChIJma8cxQI7t5ER4j1ZfrVkdXI,Botica Sandra,0.0,0,"Jr. Manuel del Águila, Moyobamba 22001, Peru",,,-6.035122299999999,-76.9749382
ChIJmyESLJbjEJERvBfcxR1dfuk,Boticas Efrend,3.5,2,"Av San Martin 1406-1472, Ica 11000, Peru",,,-14.0778304,-75.72642019999999
ChIJmzfhggQ7t5ERlXWT3nYpJiE,Mifarma,5.0,2,"Jiron Alonso de Alvarado 780, Moyobamba 22001, Peru",,http://www.mifarma.com.pe/,-6.031712499999999,-76.9732181
ChIJn1ysNLzIBZERS2qf7fguysY,Boticas Perú,0.0,0,"Jr. Andahuaylas, Cercado de Lima 15033, Peru",,,-12.0601145,-77.02655089999999
ChIJn45QCa49tJERceiYKdLS_KA,INKAFARMA,0.0,0,"CAL. CHACHAPOYAS NRO. 2130, 01525, Peru",,http://www.inkafarma.pe/,-5.9212468,-78.1203085
ChIJn6XXCAartpERtXqWDwjRLm8,Inkafarma,4.0,2,"Jr. Grau N° 529, Chachapoyas 01001, Peru",(01) 4261899,http://www.inkafarma.pe/,-6.2292934,-77.8718418
ChIJnxoNiHTWbZERGW9Zc479rMI,Mi farma,4.2,12,"Av El Sol 166, Cusco 08002, Peru",,,-13.5181546,-71.9785783
ChIJnzNatJi9o5ER9pUKkK9R9to,Inkafarma,4.5,4,"CAL.PRIMAVERA MZA. LL LOTE. 9, Pucallpa 25002, Peru",,http://www.inkafarma.pe/,-8.4004162,-74.5710367
ChIJo8cVN06WDpERPgTcr0zV6qc,Mifarma,0.0,0,"Ca. Real 711, Huancayo 12000, Peru",,https://www.mifarma.com.pe/locales/,-12.0703628,-75.2093613
ChIJoRWTs0-WDpERjgpUc7NIimo,Botica Dentfarma,0.0,0,"Jirón Lima 373, San Agustín de Cajas 00000, Peru",997 525 347,https://botica-dentfarma.negocio.site/,-12.0697622,-75.21023799999999
ChIJoZragj8Q6pERyJq8770pfLI,Botica Señor De Luren,0.0,0,"Av. Cornejo Portugal/calle, Yurimaguas 16006, Peru",,,-3.762935199999999,-73.2536313
ChIJozkrdhcWrZEROiSKDMXP9wI,Boticas Perú,3.6,9,"Prol Union 2142, Trujillo 13006, Peru",(01) 2067000,http://www.boticasperu.com.pe/,-8.0912603,-79.0070947
ChIJp58LQW7vTJARHLaQezA2Dok,Inka farma salaverry,3.0,1,"AV. FELIPE SANTIAGO, Av. Salaverry NRO. 770, Chiclayo 14009, Peru",,http://www.inkafarma.pe/,-6.770349,-79.8530397
ChIJp5rWPmvOBZERU2_AUk20Ang,Farmacia Ahorro y Salud,0.0,0,"Mz M2, Lt 10, Los Naranjos, Los Olivos 15109, Peru",(01) 2410049,,-11.9772514,-77.08378189999999
ChIJp85A7MHLBZERNTX8Pcw50zs,Inkafarma,4.5,4,"INT. 2, Av. Sta. Rosa NRO. 347, Callao 07016, Peru",(01) 3142020,http://www.inkafarma.pe/,-12.0684144,-77.1207258
ChIJpQC1xKnjEJER_GpbQlHNYbs,"Farmacia ""Maria Esperanza"" EIRL",0.0,0,"Ayabaca 268, Ica 11004, Peru",935 806 037,,-14.0737648,-75.74750929999999
ChIJpQPfsR1bspERt1dS_SdscQc,INKAFARMA,0.0,0,"Av Atahualpa NRO-401, Cajamarca 06002, Peru",,http://www.inkafarma.pe/,-7.165700500000001,-78.505727
ChIJpQpkd-tbspERvhLfzJ0o-bE,INKAFARMA,0.0,0,"JR, Del Batán NRO. 155, Cajamarca 06001, Peru",,http://www.inkafarma.pe/,-7.1560866,-78.5175118
ChIJpXHeuftaspERfGKUyuQxTmk,FARMACIA NUESTRA SEÑORA DE GUADALUPE,4.0,3,"Jr., Jirón G. Urrelo 1084, Cajamarca 06002, Peru",(076) 286239,,-7.156365399999999,-78.5132745
ChIJpYiM3bziEJERzs0Ij0x1do4,Inkafarma,4.0,2,"Av Grau NRO. 400, Ica 11001, Peru",(056) 252385,http://www.inkafarma.pe/,-14.0626427,-75.7256192
ChIJp_6l-2RbspER3UxeiE8ZtdQ,MIFARMA,4.0,1,"Tayabamba 201, Cajamarca 06001, Peru",,,-7.152626199999999,-78.51737229999999
ChIJp_8U5-ppXZERW5NkYs9QoRQ,Famarcy,3.0,5,"Lima 364, Puno 21001, Peru",(01) 4261899,http://www.inkafarma.pe/,-15.8386266,-70.0280363
ChIJpdxIPAHPWpERwOnPFv6i4cY,botica FreeFarma,5.0,1,"2 De Mayo 120, Tacna 23001, Peru",981 797 362,,-18.0137654,-70.25549649999999
ChIJpzLgk-ppXZER_wlAwBM1_cI,FARMACIA CENTENARIA,1.0,1,"Lima 206, Puno 21001, Peru",950 314 407,http://www.hotelciudaddelago.com/,-15.837482,-70.02838
ChIJq7LJNufLBZERPIWF8FGR3No,Botica NeoSalud,5.0,1,"Av. Victor Raul Haya de la Torre 537, La Perla 07011, Peru",,,-12.0654817,-77.1087534
ChIJqQ1ZoRw7t5ERFSGwNlMZmIo,Botica Central,3.0,1,"Serafín Filomeno, Moyobamba 22001, Peru",,,-6.0321216,-76.9769714
ChIJqRxblHcQ6pER56F8fufV_P4,BOTICA ALDI,0.0,0,"Calle Samanez Ocampo 752, Iquitos 16002, Peru",(065) 750196,,-3.742269,-73.24237839999999
ChIJqSBjG5DiEJERHyolDCjAFoY,Inkafarma,4.5,2,"Urb. Sol de Ica Mz E Lote 12, Ica 11001, Peru",945 237 918,http://www.inkafarma.pe/,-14.0768627,-75.7261552
ChIJqV2uIoMNqZERGCW3IYerDvY,INKAFARMA,0.0,0,"JR. JUAN DE LA CRUZ ROMERO AR, Huaraz 02001, Peru",,http://www.inkafarma.pe/,-9.5301329,-77.5311785
ChIJqXt1qu1bspERp_fgKTMbRRM,Botica Cristopharma,0.0,0,"Avenida Mario Urteaga 339, Cajamarca 06002, Peru",(076) 368647,,-7.1603458,-78.5084342
ChIJqe3QNzfPWpERsU3CTxzeBOY,INKAFARMA,0.0,0,"Av. Patricio Melendez 102, Tacna 23001, Peru",,http://www.inkafarma.pe/,-18.01099,-70.2469806
ChIJqz5IjcLRBZERPqoQYikvYf0,Farmacia El salvador,0.0,0,"Av. San Felipe 499, Lima 15072, Peru",,,-11.904496,-77.037356
ChIJr23XmJZpXZERu0kE0CPcFgM,Farmacia ADEFARMA,0.0,0,"Simon Bolivar 292, Puno 21001, Peru",,,-15.8396605,-70.02012669999999
ChIJrXJJuPzVbZERxuLAFYvw_X0,INKAFARMA,0.0,0,"NRO.105, Av Manco Capac 101, Cusco 08002, Peru",,http://www.inkafarma.pe/,-13.5239592,-71.9688553
ChIJrb99FB7OBZERd0yiDzD-UTw,Botica Cmfarma,4.0,2,"Av. Central Perú, Los Olivos 15307, Peru",,,-11.9549832,-77.08411799999999
ChIJrefNTwtpXZEROoTRrus0pU8,Mi Farma,0.0,0,"Jr, Los Incas 364, Puno 21001, Peru",,,-15.8364784,-70.0235339
ChIJs49mjzBLQpERZ9stN-KXczg,BOTICA GARCIA,4.3,4,"Calle, Victor Lira 218, Arequipa 04001, Peru",959 997 377,https://www.paginasamarillas.com.pe/empresas/botica-garcia-eirl/arequipa-80627499,-16.405202,-71.5321108
ChIJsYTZke7PWpERL7Hs6bo8kg0,Botica San Antonio,0.0,0,"Oscar Carbajal 1019, Tacna 23002, Peru",927 758 451,,-17.9883166,-70.24179529999999
ChIJsbJMYd_VbZERB7aFJ9AcJCI,INKAFARMA,0.0,0,"Tres Cruces De Oro 501, Cusco 08002, Peru",,http://www.inkafarma.pe/,-13.5234237,-71.9798402
ChIJsbeFwcnIBZERduyp9UEKkxY,Boticas Farmacenter,4.0,1,"Avenida Emancipación 226, Cercado de Lima 15001, Peru",,,-12.0480186,-77.0344841
ChIJt2aelO7iEJER6xXutsLkaOM,Boticas InkaFarma,2.0,1,"Huacachina 126, Ica 11004, Peru",,https://inkafarma.pe/,-14.0746705,-75.74431899999999
ChIJt4379n4QSpARQH9G4jepe5A,Mifarma,4.0,1,"Av. Grau 394, Piura 20001, Peru",,https://www.mifarma.com.pe/,-5.1957318,-80.62898310000001
ChIJt8oMLiUrbZER5bCHRKmMSqY,INKAFARMA,0.0,0,"Av. Tupac Amaru Mz V2 Lt. 16, Andahuaylas 03701, Peru",,http://www.inkafarma.pe/,-13.6616515,-73.3767641
ChIJtajTlSvDp5ERLiQi3yAMhKI,Inkafarma,0.0,0,"JR, Jirón Huallayco NRO. 1298, Huánuco 10001, Peru",,http://www.inkafarma.pe/,-9.925798,-76.2404877
ChIJtdLwDvC8o5ERKl5SdWfy2FQ,Botica Rey,0.0,0,"Jr.Ucayali 339, Pucallpa 25001, Peru",591195,,-8.3837207,-74.5340839
ChIJtyKR9CfvTJARQAg9tispffQ,Mifarma,3.0,2,"Av, San Jose 399, Chiclayo 14001, Peru",,http://www.mifarma.com.pe/,-6.7714695,-79.84216459999999
ChIJu-Sy5VGWDpERqI-5f527gpw,Inkafarma,0.0,0,"CAL. REAL NRO. 972 JUNiN, Huancayo 12001, Peru",,http://www.inkafarma.pe/,-12.0722176,-75.2079334
ChIJu0DAxOppXZEROcmUnm3dhkU,Farmacia Santa Cruz,0.0,0,"Jirón Arequipa 347, Puno 21001, Peru",,,-15.8383448,-70.0275117
ChIJu43qy_V9EpERPt0aLDVROCk,Inkafarma,3.5,2,"Av. Mariscal Cáceres 609, Ayacucho 05001, Peru",(01) 4261899,http://www.inkafarma.pe/,-13.1585628,-74.2208584
ChIJu5uO1VkOM5ARUx9WsYc4MeM,Farmacia Cruz Azul,3.0,4,"Rocafuerte Y Ayacucho, Machala, Ecuador",,http://www.farmaciascruzazul.com/,-3.257861,-79.959783
ChIJuU2oA1fvTJARkdXeFFgtCsM,Boticas Perú,0.0,0,"Av, Elias Aguirre 250, Chiclayo 14001, Peru",(01) 2067000,http://www.boticasperu.com.pe/,-6.771510999999999,-79.842871
ChIJuV3uFVdKQpERwAjbFZ00ejg,Mifarma,0.0,0,"Calle Santo Domingo 113, Cercado De Arequipa 04001, Peru",(054) 202044,https://www.mifarma.com.pe/locales/#,-16.3999952,-71.5349945
ChIJuWOT-WsQ6pERPVXMcYIO5e4,Mi Farma,3.8,6,"Arica 203, Iquitos 16001, Peru",989 320 250,http://www.mifarma.com.pe/,-3.7553326,-73.2483695
ChIJu_x4UyEWrZEREhkio0yD3vU,InkaFarma,3.7,7,"1301 - NRO, Av. Perú 1303, Trujillo 13006, Peru",,http://www.inkafarma.pe/,-8.0992184,-79.0140473
ChIJucKfCGsQ6pER1-1LpEZ6OOE,Mi Farma,0.0,0,"9 De Diciembre 397, Iquitos 16006, Peru",,https://www.mifarma.com.pe/locales/,-3.7575554,-73.25036709999999
ChIJuw9s-ifvTJARvSn8pJ9ENlg,Boticas Mi Farma,4.0,2,"Elias Aguirre 400, Chiclayo 14001, Peru",,http://www.mifarma.com.pe/,-6.771610099999999,-79.8415156
ChIJuz6d2-y9o5ERIS854VVQxfg,INKAFARMA,0.0,0,"AV. LUIS FLORES MACAHUA, Pucallpa 25003, Peru",,http://www.inkafarma.pe/,-8.392826399999999,-74.5826184
ChIJv0NE-GbPWpER3jL4DZYfIhI,INKAFARMA,0.0,0,"CAL, Av. Patricio Melendez NRO. 103, Tacna 23001, Peru",,http://www.inkafarma.pe/,-18.0109892,-70.2469812
ChIJv3dTmyS9o5ERRX2voeZz15k,Inkafarma,4.0,1,"Union 396, Pucallpa 25000, Peru",(01) 3142020,https://inkafarma.pe/,-8.3770893,-74.5445988
ChIJv676eGKXDpERBv_Y4Uu70fI,Yakufarma,4.0,1,"Av. Huancavelica 2062, 12001, Peru",(064) 248192,,-12.0533611,-75.2251963
ChIJvSXk15EbSpARffM42hcLXZw,Mifarma,0.0,0,"Prol Miguel Grau 1705, Piura 20001, Peru",955 215 862,https://www.mifarma.com.pe/,-5.1916077,-80.6439692
ChIJvYrMrRLUBZERPiMDocdnJ5k,Inkafarma,4.5,4,"Mz.a9 Lt.30, Av. Ayacucho, Ventanilla 07036, Peru",(01) 3142020,https://inkafarma.pe/,-11.8545489,-77.125208
ChIJva-powNLQpERq2jl2aoRSks,Mifarma,5.0,1,"Centro Comercial Parque Lambramani, Piso -2, SHOP 219, Av. Lambramani 325, Cercado de Arequipa 04001, Peru",,https://www.mifarma.com.pe/locales/,-16.4108501,-71.5206816
ChIJw-GhPNkCbZERb1T9_21O0r8,"BOTICA ""SAN PABLO""",0.0,0,"Jr. Lima 619-631, Abancay 03001, Peru",,,-13.6364338,-72.8822118
ChIJw3SSy1fzCJEROWdn88KaHSY,INKAFARMA,0.0,0,"Jr. Simón Bolivar NRO. 401, Junín 12731, Peru",,http://www.inkafarma.pe/,-11.1615601,-75.9963932
ChIJw4vHxPruTJAR7VOjvx1j0wc,Boticas Perú,4.5,2,"Pasaje 4 Noviembre Mz. J Lote 2, Chiclayo 14012, Peru",(01) 2067000,http://www.boticasperu.com.pe/,-6.763026,-79.864245
ChIJw8NjEhINqZERg582SnmEzmU,Botica Robles,1.0,1,"13 De Diciembre 604, Huaraz 02001, Peru",232868,,-9.524130000000001,-77.5283262
ChIJwTOI-cf7NZAR4oaTnpQ0nXQ,Boticas Perú,4.5,2,"Calle Bolivar 285, Sullana 20101, Peru",(01) 2067000,http://www.boticasperu.com.pe/,-4.891163199999999,-80.6887544
ChIJwyVZERENqZERnoajGU5FkPY,Botica Farma Luren,0.0,0,"Avenida 27 de noviembre (ex tarapaca) 310, Huaraz 02001, Peru",,https://www.facebook.com/farmaluren,-9.527351699999999,-77.5314022
ChIJx-QHYzo3sZERtGt520NmQvA,Inkafarma,0.0,0,"JR, Av de Mendoza 302, Mendoza 01335, Peru",,http://www.inkafarma.pe/,-6.3953125,-77.48166499999999
ChIJx3tqG0OdRJERsYDGxKR-uU8,Mi Farma,0.0,0,"Av Balta 413, Moquegua 18001, Peru",,,-17.1925887,-70.93633760000002
ChIJx5KEhQM7t5ERCTd4T2_sONM,Botica Central,5.0,2,"Juan José Reyes Guerra, Moyobamba 22001, Peru",(042) 562877,,-6.0321563,-76.97226409999999
ChIJxRlq1_J9EpERZ7TQ2ViKb4c,Inkafarma,3.5,2,"28 de Julio 246, Ayacucho 05003, Peru",(01) 4261899,http://www.inkafarma.pe/,-13.1627238,-74.2269251
ChIJxcIehPq8o5ERkGW14IpEFBA,botica M&M,5.0,1,"Tnte. Clavero (El Huquito), Pucallpa 25000, Peru",978 815 665,http://observatorio.digemid.minsa.gob.pe/,-8.3851879,-74.5350535
ChIJxfAPutfOBZERFWpmq1x7lZM,MiFarma,2.9,7,"Av. Perú 1332, Cercado de Lima 15101, Peru",,,-12.0326661,-77.0587578
ChIJxxBl7w0rbZERtVAjlwD6peA,Inkafarma,4.0,2,"Jr. Apurimac NRO. 149, Talavera 03701, Peru",3159000,http://www.inkafarma.pe/,-13.6532793,-73.42883309999999
ChIJxxEA-eziEJERAjftRtpfebA,Inkafarma,5.0,2,"Carr. Panamericana Sur 774, Ica 11004, Peru",,https://inkafarma.pe/,-14.0763435,-75.7387802
ChIJxy2Q9_DVbZERoJJrhtfmNRU,Farmacia Universal,4.0,1,"A-9, Jiron De La Union, Cusco 08007, Peru",(084) 287058,,-13.5348197,-71.9607523
ChIJy1IxmPCHEpERajlbWrc3WKw,Botica,0.0,0,"Abraham Valdelomar 1090, Ayacucho 05001, Peru",,,-13.1522165,-74.21403380000001
ChIJy1h9noM9rZERxT9m6tk3P7Q,Mifarma,4.0,3,"Jirón Francisco Pizarro 510, Trujillo 13001, Peru",(01) 6125000,https://www.mifarma.com.pe/,-8.1116663,-79.02760119999999
ChIJy76nsFdLQpERtH3u8mN0uJE,Boticas Perú,4.0,1,"Calle, General Móran 107, Arequipa 04001, Peru",(01) 2067000,http://www.boticasperu.com.pe/,-16.399726,-71.53582399999999
ChIJyTSiQE_fBpERUNw9aBc1q0A,Boticas Perú,0.0,0,"Jr, La Merced 210, Huacho 15136, Peru",(01) 2067000,http://www.boticasperu.com.pe/,-11.106471,-77.608998
ChIJyUQlCTEftJERumgeRiaIzOk,Inkafarma,1.0,1,"AV. SACSAHUAMAN NRO. 155, Pedro Ruiz 01130, Peru",,http://www.inkafarma.pe/,-5.9467286,-77.9789692
ChIJya0SW94CbZERWM9moNd51Fw,Inkafarma,4.0,1,"Jr. Arequipa NRO. 126, Abancay 03001, Peru",3159000,http://www.inkafarma.pe/,-13.6362619,-72.8775287
ChIJyc3zvOVaspERpEHX56Idbqk,Inkafarma,4.5,2,"Vía de Evitamiento Norte, Cajamarca 06002, Peru",999 885 544,https://www.inkafarma.com.pe/?gclid=Cj0KEQjwuOHHBRDmvsHs8PukyIQBEiQAlEMW0EWiAklVDWhASN9fhtZlxzbtWP98UcZ-p5R9c3wUBNQaAlRr8P8HAQ,-7.1543858,-78.50559179999999
ChIJzTT7bPlaspERMEvNkqKcavw,Mi Farma,3.7,7,"Jr.Amazonas, Cajamarca 06002, Peru",,,-7.1566,-78.5162562
ChIJzWCssaYa6pERS1u74lH9Drg,INKA FARMA CAUPER,3.4,5,"AV. NAVARRO CAUPER MZ C LOTE, Alfonso Navarro Cauper 47, Iquitos 16004, Peru",,,-3.737055,-73.25938400000001
ChIJzainuJu9o5ERlY1s6OO8Wso,INKAFARMA,0.0,0,"Av. Centenario 4614, Pucallpa 25000, Peru",,http://www.inkafarma.pe/,-8.3881713,-74.5661835
ChIJzbRwurKXDpERgt4--ROzOg8,Botica Perú Farma,4.7,3,"Jose Olaya, Huancayo 12002, Peru",(064) 365419,,-12.0699747,-75.2005465
ChIJze_xgXjDp5ERTPrSGD_1Mr8,Botica Medicfarma,5.0,1,"Jr.Huánuco Nº 615, Huánuco 10001, Peru",(062) 512733,,-9.938897599999999,-76.24406309999999
ChIJzyr5UP3VbZERAPYUIJpWOEI,InkaFarma,3.7,3,"Av. de La Cultura NRO. 762, Cusco 08002, Peru",970 364 989,http://www.inkafarma.pe/,-13.5224362,-71.9632656
